lcTime pitch roll yaw velE velN velU lat lon height biasGx biasGy biasGz biasAx biasAy biasAz leverx levery leverz dt psrCorr psrRateDrift utc
1730951755 -1.181838167527e+00 -4.152713587268e+00 1.503858867792e+01 -2.734841406780e-01 3.799679501422e-01 9.977740946927e-01 5.595421010859e-01 2.073586983574e+00 4.974170822118e+01 -1.562381874460e-06 -2.836897756330e-06 -2.328735628686e-07 1.319410920443e-04 -4.204731205807e-04 2.068080123385e-02 9.999294759726e-03 1.000011130521e-02 7.228680540909e-01 4.996915892972e-03 -1.331179922117e+05 9.856843755801e+00 0.000000000000e+00 
1730951755 -9.402179515504e-01 -3.610470758498e+00 1.509888990208e+01 -3.679526780914e-01 6.564117804334e-01 1.796086681646e+00 5.595421798392e-01 2.073586339936e+00 5.660849479995e+01 -1.279233629963e-05 -1.545332849342e-05 -7.791435749041e-07 3.190255772951e-03 -1.266619088346e-03 9.350095552213e-02 9.999014206937e-03 9.999819213719e-03 6.800496361461e-01 4.992589239193e-03 -1.331123906784e+05 1.003248970948e+00 0.000000000000e+00 
1730951755 -2.981781838630e-01 -3.423413364622e+00 1.518268013914e+01 -3.712673290602e-01 6.190641536158e-01 2.287624791768e+00 5.595422074066e-01 2.073586044022e+00 6.121276858343e+01 -4.118360978138e-05 -3.530258090795e-05 -1.349981020842e-06 9.605784834133e-03 -1.572459133326e-03 2.221694679036e-01 9.998872973952e-03 9.999469310282e-03 6.588200449302e-01 4.991341686174e-03 -1.331089810860e+05 9.889677818076e-01 0.000000000000e+00 
1730951756 -2.981667055522e-01 -3.352729648145e+00 1.526837360603e+01 -4.581491263471e-01 8.144172972046e-01 2.394906134137e+00 5.595422778630e-01 2.073585835823e+00 6.410870190999e+01 -6.399508235351e-05 -6.765540673229e-05 -3.104126720587e-06 1.703632337791e-02 -1.649457374659e-03 3.780161333721e-01 9.998805557762e-03 9.999437461423e-03 6.504117818015e-01 4.992873379181e-03 -1.331068286534e+05 9.889956925404e-01 0.000000000000e+00 
1730951756 -4.754274826910e-02 -3.327525525425e+00 1.544607760993e+01 -4.923914970943e-01 7.635385320590e-01 2.247772773568e+00 5.595423181225e-01 2.073585698674e+00 6.508001398192e+01 -1.003868407876e-04 -1.183037761774e-04 -7.635831574171e-06 2.355056889402e-02 -8.005677829162e-04 5.272896761665e-01 9.998724698068e-03 9.999779906454e-03 6.496141296395e-01 4.994387377216e-03 -1.331063076089e+05 8.517797088140e-01 0.000000000000e+00 
1730951756 3.004622159391e-01 -3.292137649999e+00 1.565072743219e+01 -4.736479979479e-01 5.016778524695e-01 2.002905392722e+00 5.595422713981e-01 2.073585584086e+00 6.594527046421e+01 -1.369330549801e-04 -2.011099087846e-04 -1.411775913769e-05 2.826000079401e-02 1.522048244826e-03 6.477351582741e-01 9.998643927112e-03 1.000026281186e-02 6.441700601161e-01 4.991309819441e-03 -1.331058779111e+05 6.909555765287e-01 0.000000000000e+00 
1730951756 3.911345043891e-01 -3.186971474075e+00 1.572173797150e+01 -4.683213894609e-01 5.137163941383e-01 1.702455254055e+00 5.595422992352e-01 2.073585514980e+00 6.609567913346e+01 -1.418384951416e-04 -3.247643378335e-04 -1.734205936557e-05 3.190703437619e-02 4.516500191954e-03 7.389175015648e-01 9.998562057928e-03 1.000050054833e-02 6.431010316527e-01 4.987397371840e-03 -1.331056399620e+05 6.200926302095e-01 0.000000000000e+00 
1730951756 4.143310405485e-01 -3.027448031826e+00 1.591516751462e+01 -4.450136961101e-01 4.671969621498e-01 1.424468630460e+00 5.595423054340e-01 2.073585455706e+00 6.615730763740e+01 -1.569320166077e-04 -4.683184621400e-04 -2.127047776884e-05 3.398411912626e-02 7.193616153851e-03 8.036400778665e-01 9.998449705319e-03 1.000053702033e-02 6.404063083596e-01 4.982797852334e-03 -1.331056041399e+05 5.248724884847e-01 0.000000000000e+00 
1730951757 4.967642776262e-01 -2.885601945073e+00 1.596394348555e+01 -3.769832199998e-01 3.798931251729e-01 1.213103365734e+00 5.595422814676e-01 2.073585457268e+00 6.609312479537e+01 -1.900504386977e-04 -6.337485189102e-04 -1.948914547156e-05 3.571255307816e-02 9.729095137507e-03 8.496646236686e-01 9.998363227129e-03 1.000058557997e-02 6.369896451890e-01 4.979301021954e-03 -1.331058758536e+05 4.107783927297e-01 0.000000000000e+00 
1730951757 5.213680220767e-01 -2.791662851239e+00 1.603145450012e+01 -3.416827658260e-01 3.523120753968e-01 1.018304274785e+00 5.595422866163e-01 2.073585425288e+00 6.604959964583e+01 -2.084890658046e-04 -7.839006262932e-04 -2.026698477149e-05 3.620295399964e-02 1.187292751629e-02 8.824532787012e-01 9.998283434946e-03 1.000059741750e-02 6.343430497662e-01 4.976990329677e-03 -1.331061772754e+05 3.102449649042e-01 0.000000000000e+00 
1730951757 5.566480514659e-01 -2.708485562872e+00 1.612581566390e+01 -2.968706862389e-01 3.391822472847e-01 8.692480299834e-01 5.595422884801e-01 2.073585394357e+00 6.586889393262e+01 -2.376788978331e-04 -9.097888751392e-04 -2.136155925142e-05 3.622138416266e-02 1.370907629114e-02 9.069780908323e-01 9.998222544276e-03 1.000059884250e-02 6.323908342258e-01 4.974976990233e-03 -1.331065903990e+05 2.246518242051e-01 0.000000000000e+00 
1730951757 6.394470285226e-01 -2.582608287291e+00 1.624902206819e+01 -2.441604433712e-01 2.916102393864e-01 7.423587013034e-01 5.595422721012e-01 2.073585375016e+00 6.563631524691e+01 -2.977380907119e-04 -1.004943743230e-03 -2.057127014971e-05 3.609194131946e-02 1.537392783581e-02 9.252517663888e-01 9.998161684405e-03 1.000059453844e-02 6.306186827215e-01 4.973408661164e-03 -1.331072275174e+05 1.234431431302e-01 0.000000000000e+00 
1730951757 6.859693992880e-01 -2.528674423135e+00 1.628238304453e+01 -1.836328562510e-01 2.505393292512e-01 6.514206407378e-01 5.595422537357e-01 2.073585350994e+00 6.563537435130e+01 -3.709518778510e-04 -1.059696248418e-03 -1.897750522718e-05 3.588181224124e-02 1.674262679062e-02 9.385098835493e-01 9.998146074520e-03 1.000057310745e-02 6.278723998770e-01 4.973055017990e-03 -1.331075180949e+05 7.227997496435e-02 0.000000000000e+00 
1730951757 7.673327615038e-01 -2.498848193720e+00 1.628418666141e+01 -1.028594205533e-01 1.482333191152e-01 5.569935653313e-01 5.595422046897e-01 2.073585345650e+00 6.533979963226e+01 -4.922595381842e-04 -1.065417768026e-03 -1.437197939268e-05 3.576899653584e-02 1.825144494756e-02 9.497581301258e-01 9.998146066572e-03 1.000056500659e-02 6.266729298210e-01 4.972675220569e-03 -1.331080873016e+05 1.440750079537e-02 0.000000000000e+00 
1730951758 7.548184345513e-01 -2.473365324125e+00 1.627583899986e+01 -6.501469130850e-02 1.868074167299e-01 4.923551190244e-01 5.595422222313e-01 2.073585331197e+00 6.531161056779e+01 -4.898121283833e-04 -1.054180316052e-03 -1.456502001659e-05 3.581499008680e-02 1.900088854631e-02 9.576634845300e-01 9.998142104541e-03 1.000054540939e-02 6.254301082543e-01 4.973054171965e-03 -1.331083764366e+05 -1.363083719450e-02 0.000000000000e+00 
1730951758 1.051520674287e+00 -2.472320782192e+00 1.848612933792e+01 -1.530364193985e-01 5.258762106870e-01 4.169388626802e-01 5.595422112465e-01 2.073585333771e+00 6.512411554791e+01 -6.004792434034e-04 -1.025457685331e-03 -7.533709007980e-06 3.597920230849e-02 2.004534067012e-02 9.644444514116e-01 9.998178223036e-03 1.000058960656e-02 6.248003261655e-01 4.974012938268e-03 -1.331085267959e+05 1.725706295252e-03 0.000000000000e+00 
1730951758 9.492195156970e-01 -2.202652770733e+00 2.669805513294e+01 -3.396246357557e-01 7.859610058563e-01 3.514735413795e-01 5.595422415541e-01 2.073585304157e+00 6.495548960694e+01 -7.634659341092e-04 -9.783807626028e-04 1.082495232180e-06 3.620129560889e-02 2.102358514331e-02 9.696226178435e-01 9.998122037833e-03 1.000058961658e-02 6.246027705561e-01 4.975340946194e-03 -1.331087832089e+05 -6.924590347417e-03 0.000000000000e+00 
1730951758 7.172944183333e-01 -2.108148247677e+00 3.847872543311e+01 -5.344391671880e-01 8.262963687700e-01 3.175674886572e-01 5.595423466407e-01 2.073585236179e+00 6.494252926533e+01 -8.367478749774e-04 -9.398844387840e-04 9.428297902562e-06 3.663560296734e-02 2.107352951756e-02 9.734035212879e-01 9.998136001808e-03 1.000055632252e-02 6.242457291683e-01 4.976971515316e-03 -1.331087968106e+05 1.065764085291e-02 0.000000000000e+00 
1730951758 3.333086397530e-01 -2.040786279350e+00 4.776272548393e+01 -2.649344932920e-01 4.225329820465e-01 2.731228728593e-01 5.595424341424e-01 2.073585188023e+00 6.483295499180e+01 -9.020440950808e-04 -9.143881068118e-04 2.399009711576e-05 3.759599535794e-02 2.003524202900e-02 9.767130999609e-01 9.998156663072e-03 1.000064105212e-02 6.246402940847e-01 4.978308873606e-03 -1.331089940203e+05 4.991189132038e-03 0.000000000000e+00 
1730951758 2.925420952721e-01 -1.681874558476e+00 5.441082248435e+01 -1.674140483592e-01 3.758375050165e-01 2.556115089213e-01 5.595425098661e-01 2.073585147010e+00 6.487229621432e+01 -9.216145841790e-04 -8.542385673539e-04 3.412077931751e-05 3.896908644666e-02 1.619232271775e-02 9.791996031161e-01 9.998265365249e-03 1.000081832710e-02 6.246164482979e-01 4.979434868846e-03 -1.331089994698e+05 1.392519899242e-02 0.000000000000e+00 
1730951759 2.062664157362e-01 -1.207208627852e+00 5.973841206030e+01 -3.090110291724e-01 4.806633393324e-01 2.120213668463e-01 5.595426041531e-01 2.073585072166e+00 6.491511301906e+01 -9.332457951376e-04 -7.845125841869e-04 4.589366280855e-05 4.089396770461e-02 9.647255352022e-03 9.811734403844e-01 9.998504513638e-03 1.000103062836e-02 6.248463622574e-01 4.980059731340e-03 -1.331090484111e+05 1.312525129858e-02 0.000000000000e+00 
1730951759 1.074147668068e+00 -9.634520550607e-01 5.969510697503e+01 -4.435582669281e-01 6.144381951438e-01 1.630190142234e-01 5.595427397236e-01 2.073584958360e+00 6.471394700173e+01 -8.958917243956e-04 -6.934125346391e-04 6.368926508868e-05 4.201682369278e-02 7.173875369732e-06 9.832835758942e-01 9.998790884138e-03 1.000079266157e-02 6.258656651645e-01 4.979423829170e-03 -1.331095614786e+05 -3.975769478018e-02 0.000000000000e+00 
1730951759 1.808006611503e+00 -2.972819091634e-01 5.352782380515e+01 -1.111662984194e+00 1.346630797185e+00 2.211336920982e-01 5.595429867365e-01 2.073584732678e+00 6.445526693668e+01 -8.039402948794e-04 -5.793123664297e-04 1.101883365619e-04 4.099813037167e-02 -1.360497681103e-02 9.858353967591e-01 9.999469135262e-03 1.000016506273e-02 6.266990865481e-01 4.978313184329e-03 -1.331097179248e+05 -1.959999525878e-02 0.000000000000e+00 
1730951759 1.318099808076e+00 -1.645853111116e-01 4.119017716033e+01 -1.138224612767e+00 2.135768131835e+00 1.688970087455e-01 5.595433304369e-01 2.073584450894e+00 6.421750248272e+01 -7.221485772523e-04 -4.702016587387e-04 2.028217785432e-04 3.829515536591e-02 -2.847316220156e-02 9.878323181219e-01 9.999904631066e-03 1.000002564331e-02 6.277036819455e-01 4.977225296662e-03 -1.331102378540e+05 -5.855807047759e-02 0.000000000000e+00 
1730951759 1.867596964748e+00 -3.340031719622e-01 3.199537550488e+01 -1.043239962545e+00 2.829396314183e+00 1.553374834043e-01 5.595437866612e-01 2.073584227590e+00 6.402186735370e+01 -6.372539794484e-04 -3.958032671005e-04 3.566540584211e-04 3.574354743865e-02 -3.790111416608e-02 9.890702264612e-01 1.000012600436e-02 9.999675209115e-03 6.286261984167e-01 4.976559194330e-03 -1.331106637080e+05 -8.031360662234e-02 0.000000000000e+00 
1730951760 1.313332760745e+00 -1.732262227113e-01 2.570561523052e+01 -9.315727842742e-01 3.370197802371e+00 1.321487220465e-01 5.595443319542e-01 2.073584062729e+00 6.414455545332e+01 -5.455134061822e-04 -3.467225411994e-04 5.628862518299e-04 3.414494678246e-02 -4.116620886973e-02 9.893070420992e-01 1.000041518277e-02 9.999642835075e-03 6.286972358141e-01 4.976917462101e-03 -1.331108353437e+05 -8.474294202226e-02 0.000000000000e+00 
1730951760 1.074993580137e+00 -2.601098868328e-01 2.150619764898e+01 -1.061560220109e+00 4.282610044478e+00 9.978982287634e-02 5.595449673759e-01 2.073583964027e+00 6.415830333343e+01 -4.790707251628e-04 -3.328495666631e-04 8.353100422887e-04 3.578421375766e-02 -3.831009040904e-02 9.891760523055e-01 1.000047883731e-02 9.999813950534e-03 6.293087087436e-01 4.976631671788e-03 -1.331112978852e+05 -1.286067597233e-01 0.000000000000e+00 
1730951760 7.580338926517e-01 -2.309663898696e-01 1.586860781304e+01 -8.390248124283e-01 5.243649606998e+00 1.129102869665e-01 5.595458398248e-01 2.073584062745e+00 6.480222276917e+01 -3.541196404243e-04 -4.144903979359e-04 1.419615495834e-03 3.744348163094e-02 -2.944800474893e-02 9.877088641576e-01 1.000072111185e-02 1.000025802632e-02 6.286145441263e-01 4.978538515827e-03 -1.331104344824e+05 -2.458964770199e-04 0.000000000000e+00 
1730951760 2.420362635716e-01 1.707596105355e-01 1.165177357421e+01 -5.271695743464e-01 5.642833518414e+00 1.583836599444e-01 5.595467851975e-01 2.073584230157e+00 6.530813697721e+01 -2.492357521057e-04 -4.801200044541e-04 2.029185077990e-03 4.008954785755e-02 -1.977095263563e-02 9.869018498766e-01 1.000099202019e-02 1.000110196878e-02 6.281703164082e-01 4.978118517408e-03 -1.331102731922e+05 4.579946460420e-03 0.000000000000e+00 
1730951760 2.362649700172e-01 3.659254778265e-01 8.566146958800e+00 -2.873439666278e-01 5.629281315337e+00 1.669480927896e-01 5.595477274075e-01 2.073584444376e+00 6.566807110970e+01 -1.607071535779e-04 -5.346224111055e-04 2.585847100902e-03 4.274365897585e-02 -1.090233137239e-02 9.865619581974e-01 1.000110480939e-02 1.000162691175e-02 6.279168693734e-01 4.977135779510e-03 -1.331102591163e+05 -2.067221259890e-03 0.000000000000e+00 
1730951760 3.651133741031e-01 5.541393171756e-01 6.856940639360e+00 -2.294110315527e-01 5.986716898824e+00 2.080968213731e-01 5.595486322629e-01 2.073584583980e+00 6.634630869991e+01 -1.328237773242e-04 -5.432297055124e-04 2.963504764862e-03 4.399465848496e-02 -2.554725285181e-03 9.861009256673e-01 1.000128877241e-02 1.000191147634e-02 6.278186690964e-01 4.975934261227e-03 -1.331095083962e+05 8.035828957196e-02 0.000000000000e+00 
1730951761 4.180578532597e-01 3.772850673094e-01 7.099103565893e+00 -4.333269088939e-01 6.231460026645e+00 2.398927960451e-01 5.595495027988e-01 2.073584508678e+00 6.678251489224e+01 -1.639926062089e-04 -4.729256862664e-04 3.028851584648e-03 4.362689597264e-02 1.090478827579e-02 9.864769552697e-01 1.000147830688e-02 1.000207794640e-02 6.283794698471e-01 4.974533209538e-03 -1.331093471273e+05 6.610184232270e-02 0.000000000000e+00 
1730951761 5.556114174687e-01 -4.688062573354e-02 7.699789298746e+00 -6.444227158333e-01 6.560950968391e+00 2.344583203224e-01 5.595504916712e-01 2.073584415584e+00 6.715586722755e+01 -1.606379956693e-04 -4.440116141830e-04 3.103984423497e-03 4.366352462843e-02 1.833213727289e-02 9.867398815014e-01 1.000143214243e-02 1.000206281481e-02 6.282400040627e-01 4.973977394768e-03 -1.331097277069e+05 -2.409464058390e-02 0.000000000000e+00 
1730951761 4.845523279533e-01 2.648205582433e-01 5.638625287064e+00 -4.016434407589e-01 6.937306400184e+00 2.830659845671e-01 5.595515268758e-01 2.073584669658e+00 6.862065184532e+01 -1.976071788629e-04 -5.222054395076e-04 3.563084076170e-03 2.989335446314e-02 7.652648565993e-03 9.866290713986e-01 1.000141230086e-02 1.000239336981e-02 6.288619032742e-01 4.970528797051e-03 -1.331067836300e+05 3.655656513688e-01 0.000000000000e+00 
1730951761 -3.363486648888e-02 4.013461828454e-01 4.060348213780e+00 -2.561052318661e-01 7.177583934442e+00 3.072818428454e-01 5.595528813257e-01 2.073584754910e+00 6.901020047270e+01 -7.648691236314e-05 -6.037742722156e-04 3.838147145272e-03 4.239620084520e-02 -6.151947967569e-03 9.874675146493e-01 1.000114635579e-02 1.000248265527e-02 6.260521046610e-01 4.972930398607e-03 -1.331072347236e+05 2.360226708376e-01 0.000000000000e+00 
1730951761 -6.927552046123e-02 9.313252893147e-01 3.362586613968e+00 -2.059804663103e-01 7.084394682096e+00 2.936730342770e-01 5.595541329609e-01 2.073584739534e+00 6.889334875498e+01 -6.353947058213e-06 -6.254648025767e-04 3.946553981637e-03 5.264119109522e-02 -8.662316353971e-03 9.898677208335e-01 1.000121671092e-02 1.000235206103e-02 6.245034724743e-01 4.975150050249e-03 -1.331071639595e+05 2.464876554711e-01 0.000000000000e+00 
1730951761 -6.129103801787e-01 8.589464881582e-01 1.351786443765e+00 6.969514329558e-02 6.642000255832e+00 1.869531343339e-01 5.595553758781e-01 2.073584973766e+00 6.837795419220e+01 5.327246846011e-05 -6.934300520493e-04 4.253112189013e-03 5.852960638960e-02 -2.058558441132e-02 9.931799445176e-01 1.000083363258e-02 1.000219994159e-02 6.240202546898e-01 4.976516130917e-03 -1.331066104109e+05 3.690187304602e-01 0.000000000000e+00 
1730951762 -7.265037417654e-01 1.114013741251e+00 -5.071034197742e-01 3.269384238593e-01 5.973894678578e+00 1.861511781644e-01 5.595563659453e-01 2.073585336733e+00 6.792281690836e+01 3.749275307929e-05 -7.334205564897e-04 4.600885363421e-03 4.724603379496e-02 -2.629546959644e-02 9.960649832386e-01 1.000041703643e-02 1.000220148600e-02 6.253523358412e-01 4.973910790146e-03 -1.331074462581e+05 2.364177381755e-01 0.000000000000e+00 
1730951762 -7.257535769721e-01 1.510847993913e+00 -2.522814879156e+00 6.183124642773e-01 5.031679822485e+00 1.778765675684e-01 5.595570944507e-01 2.073585754552e+00 6.804187933543e+01 -1.645781478330e-05 -7.469962911192e-04 4.962099886391e-03 2.689662787077e-02 -2.693410217366e-02 9.978583094814e-01 1.000007845634e-02 1.000245704716e-02 6.273241186154e-01 4.969143750091e-03 -1.331074842625e+05 1.877732251454e-01 0.000000000000e+00 
1730951762 -3.978401642990e-01 1.568868154034e+00 -3.391010895504e+00 6.755308524170e-01 4.393880366180e+00 1.338400050430e-01 5.595576141157e-01 2.073586017380e+00 6.792774806509e+01 -7.480147696151e-05 -7.190157644076e-04 5.152560707578e-03 7.667237946473e-03 -1.531351161593e-02 9.991579300636e-01 9.999643743801e-03 1.000277468355e-02 6.292301690536e-01 4.964284994663e-03 -1.331082437768e+05 5.400773953324e-02 0.000000000000e+00 
1730951762 -9.152959140853e-01 1.554152775648e+00 -3.325234872342e+00 6.415367829631e-01 4.167078985245e+00 7.857359084323e-02 5.595582212330e-01 2.073586111283e+00 6.711133191679e+01 -7.864434351979e-05 -6.909400535514e-04 5.196362225654e-03 5.772841643155e-03 -1.493627410146e-03 1.001468261688e+00 9.999253413449e-03 1.000263519400e-02 6.298393208590e-01 4.962949923842e-03 -1.331095015448e+05 -7.667964472679e-02 0.000000000000e+00 
1730951762 -3.313300070245e-01 1.373532983895e+00 -3.283035720362e+00 5.056083052003e-01 3.983441942045e+00 7.661814758568e-02 5.595588338772e-01 2.073586068566e+00 6.605455318167e+01 -7.147505638981e-05 -6.568874014247e-04 5.117939054344e-03 8.862912355879e-03 1.480984047882e-02 1.003535216083e+00 9.998963826806e-03 1.000253188073e-02 6.300254747813e-01 4.962722553531e-03 -1.331113109999e+05 -2.576814301959e-01 0.000000000000e+00 
1730951762 -1.545939937123e+00 4.029998433540e-01 -5.930076960095e+00 5.304635001993e-01 3.717442750371e+00 -2.805396600010e-02 5.595594091718e-01 2.073585987048e+00 6.489020093243e+01 -6.753288357610e-05 -6.252900392915e-04 4.991897623097e-03 1.085845102237e-02 3.048491150337e-02 1.005847716730e+00 9.999145552616e-03 1.000211254834e-02 6.302625927236e-01 4.962057986283e-03 -1.331129008258e+05 -3.625632736109e-01 0.000000000000e+00 
1730951763 -5.648404023965e-01 -3.775996629919e-01 -1.408747451118e+01 8.061780236732e-01 3.479870400465e+00 -2.096351422303e-02 5.595599083025e-01 2.073585923107e+00 6.382295386227e+01 -7.410359599253e-05 -5.959424801578e-04 4.823582396233e-03 8.116597214115e-03 4.496200236338e-02 1.007551920276e+00 9.999918381497e-03 1.000238112669e-02 6.306930195761e-01 4.961093239381e-03 -1.331140166306e+05 -3.900740818563e-01 0.000000000000e+00 
1730951763 -7.334362894270e-01 -2.131977678131e-01 -2.240653559653e+01 1.007998614524e+00 3.334416153853e+00 -8.906245705381e-02 5.595603750500e-01 2.073585987746e+00 6.309326628257e+01 -8.917524730749e-05 -5.805512476965e-04 4.673241091414e-03 -4.630549087764e-04 5.240224466549e-02 1.008406171111e+00 1.000014319294e-02 1.000257777668e-02 6.311537321678e-01 4.959891100232e-03 -1.331147823284e+05 -3.876813371630e-01 0.000000000000e+00 
1730951763 -1.005963401717e+00 -2.375154423496e-01 -2.976652521012e+01 1.254965058694e+00 3.278069333109e+00 -1.733548020748e-01 5.595608082288e-01 2.073586142990e+00 6.223185162351e+01 -1.097181771075e-04 -5.715543390667e-04 4.535619892350e-03 -1.445345611305e-02 5.631798470276e-02 1.009180064475e+00 1.000005532828e-02 1.000261711712e-02 6.317319911906e-01 4.958402575474e-03 -1.331153597289e+05 -3.465881581908e-01 0.000000000000e+00 
1730951763 -1.939772124477e+00 -8.598169634520e-02 -3.713181346268e+01 1.050042568179e+00 2.442226153389e+00 -1.254524000743e-01 5.595612288174e-01 2.073586438103e+00 6.250412775760e+01 -1.297295587840e-04 -5.736134685745e-04 4.482509841763e-03 -2.929777614817e-02 5.028170241447e-02 1.008328335129e+00 9.999601559684e-03 1.000293721710e-02 6.319236002889e-01 4.958912404519e-03 -1.331150217237e+05 -2.741169052861e-01 0.000000000000e+00 
1730951763 -1.120545864264e+00 -4.297292511362e-01 -4.128811712002e+01 8.200522568903e-01 2.014720537953e+00 -6.614463668583e-02 5.595614967577e-01 2.073586719712e+00 6.288819970407e+01 -1.479114224792e-04 -5.841330610367e-04 4.486774855426e-03 -4.325467102275e-02 3.681196769628e-02 1.007562989539e+00 9.999092637120e-03 1.000316666736e-02 6.321139021865e-01 4.959043313406e-03 -1.331146904569e+05 -2.229066428705e-01 0.000000000000e+00 
1730951763 -7.756447106867e-01 -8.530629090235e-01 -4.748247174712e+01 1.058100274320e+00 2.077398006248e+00 -6.313715304467e-02 5.595617085883e-01 2.073586970050e+00 6.316056165523e+01 -1.681596538143e-04 -5.838937702229e-04 4.457670984297e-03 -6.343891539441e-02 2.843865670911e-02 1.006509516196e+00 9.998343962669e-03 1.000338366240e-02 6.321761512107e-01 4.959940203881e-03 -1.331149187811e+05 -2.601837590653e-01 0.000000000000e+00 
1730951764 -5.177772081561e-01 -1.095297994798e+00 -5.611623077294e+01 1.292391723681e+00 1.950753445679e+00 -3.074904045465e-02 5.595618674712e-01 2.073587243315e+00 6.354224434910e+01 -1.876489694480e-04 -5.768324687624e-04 4.439340678241e-03 -8.891584615173e-02 2.260522253542e-02 1.005443970187e+00 9.997317250371e-03 1.000364368872e-02 6.320061722747e-01 4.962131810782e-03 -1.331149126490e+05 -2.620249660181e-01 0.000000000000e+00 
1730951764 -3.449887786163e-01 -1.195052518486e+00 -6.413478775143e+01 1.513244554389e+00 1.765281676044e+00 -1.775875804192e-02 5.595620103748e-01 2.073587532111e+00 6.382813836843e+01 -2.010076344539e-04 -5.674719886705e-04 4.422992940746e-03 -1.140404193561e-01 1.754196128200e-02 1.004489795054e+00 9.996096722331e-03 1.000359834802e-02 6.315480275276e-01 4.965014800510e-03 -1.331152322815e+05 -3.046697866551e-01 0.000000000000e+00 
1730951764 -9.004488064230e-02 -1.525531197032e+00 -7.063997087849e+01 1.875818057007e+00 1.602983806030e+00 -2.284813904936e-02 5.595620257356e-01 2.073587795512e+00 6.344156124754e+01 -2.109611000699e-04 -5.493400322851e-04 4.444912292689e-03 -1.470382839053e-01 2.018680648439e-02 1.004783377824e+00 9.995159701607e-03 1.000378408778e-02 6.307488048401e-01 4.970374451379e-03 -1.331161929042e+05 -3.868249334452e-01 0.000000000000e+00 
1730951764 -6.320084709456e-01 -1.668031033166e+00 -7.879644775588e+01 1.688367461179e+00 1.154593498704e+00 -4.183038379658e-02 5.595620835595e-01 2.073588122454e+00 6.302244167822e+01 -2.134642650875e-04 -5.364366469022e-04 4.467114369356e-03 -1.713539876295e-01 1.971390960090e-02 1.005261385170e+00 9.994244692114e-03 1.000321202086e-02 6.299046107999e-01 4.974471313456e-03 -1.331170212125e+05 -4.263049146501e-01 0.000000000000e+00 
1730951764 7.472393591602e-03 -1.832522144712e+00 -8.457716142830e+01 8.604857139026e-01 7.996932746260e-01 -5.435694240908e-02 5.595621170900e-01 2.073588401253e+00 6.239782222801e+01 -2.151980851691e-04 -5.297762778842e-04 4.511555108423e-03 -1.883016958536e-01 1.289428798850e-02 1.006132010263e+00 9.993784067150e-03 1.000295122869e-02 6.294225612712e-01 4.976412056441e-03 -1.331178114375e+05 -4.345954175993e-01 0.000000000000e+00 
1730951765 5.821307653967e-01 -1.696424496833e+00 -8.711973372350e+01 3.481852922259e-01 6.446478023070e-01 -6.415438513966e-02 5.595621455281e-01 2.073588591312e+00 6.172037719933e+01 -2.167387835599e-04 -5.253247960674e-04 4.545079002920e-03 -2.003489150910e-01 3.882081435306e-03 1.007015124028e+00 9.993487439933e-03 1.000284311716e-02 6.291470773921e-01 4.977185954612e-03 -1.331187021598e+05 -4.519778131473e-01 0.000000000000e+00 
1730951765 9.259023509406e-01 -1.660078624817e+00 -8.922088245930e+01 4.610991453489e-03 6.020628925112e-01 -7.682596344638e-02 5.595621259575e-01 2.073588840549e+00 6.121728201316e+01 -2.240933536545e-04 -5.231938305899e-04 4.625741818258e-03 -2.094040398965e-01 -1.396288346568e-02 1.007568251434e+00 9.993565439319e-03 1.000327774814e-02 6.293403141416e-01 4.975373213883e-03 -1.331195993797e+05 -4.912100152051e-01 0.000000000000e+00 
1730951765 1.079398838259e+00 -1.360391075191e+00 -9.071727712427e+01 -3.012556907308e-01 5.212632459367e-01 -8.875402497012e-02 5.595621225808e-01 2.073589034478e+00 6.062374508493e+01 -2.316411377617e-04 -5.216116846498e-04 4.671100345395e-03 -2.148581010525e-01 -3.117523240686e-02 1.008134876363e+00 9.993664260517e-03 1.000373928655e-02 6.296970016107e-01 4.972959197333e-03 -1.331207745711e+05 -5.583245207044e-01 0.000000000000e+00 
1730951765 8.934556652721e-01 -1.179664443376e+00 -9.175755383875e+01 -4.520041178325e-01 4.814819936078e-01 -1.450677569170e-01 5.595621326485e-01 2.073589198993e+00 6.001815378341e+01 -2.400575673158e-04 -5.204608363141e-04 4.691734039347e-03 -2.171587312820e-01 -4.835289775451e-02 1.008441026353e+00 9.993773544076e-03 1.000412762717e-02 6.302455541929e-01 4.969621569483e-03 -1.331216114034e+05 -5.570237934846e-01 0.000000000000e+00 
1730951765 9.006413117425e-01 -1.139857835719e+00 -9.288829100320e+01 -6.262693361559e-02 4.365279004998e-01 -1.567709503483e-01 5.595621541075e-01 2.073589403025e+00 5.943037577072e+01 -2.490945496060e-04 -5.194754190449e-04 4.693248206219e-03 -2.170801021449e-01 -6.508239162864e-02 1.008396010370e+00 9.993969043719e-03 1.000457801672e-02 6.308983461916e-01 4.965989678272e-03 -1.331226290625e+05 -5.870870316894e-01 0.000000000000e+00 
1730951765 1.052734412771e+00 -9.922332292378e-01 -9.427599216759e+01 4.874371352556e-01 3.169205703107e-01 -1.281676290084e-01 5.595620925162e-01 2.073589876020e+00 6.012360128896e+01 -2.670605463099e-04 -5.176249744808e-04 4.706292016987e-03 -2.131741164888e-01 -9.012082656939e-02 1.006146099118e+00 9.993979718938e-03 1.000553537699e-02 6.320957871346e-01 4.959369287655e-03 -1.331224707958e+05 -5.439929916475e-01 0.000000000000e+00 
1730951766 1.660218429852e+00 -8.733852674491e-01 -9.601799324110e+01 1.241988457812e+00 1.465400679344e-01 -8.365014068097e-02 5.595620341592e-01 2.073590386170e+00 6.053375642589e+01 -2.811003536686e-04 -5.155835096100e-04 4.691577816917e-03 -2.096072400427e-01 -1.092685369479e-01 1.004481740632e+00 9.993923408645e-03 1.000642700063e-02 6.330614700310e-01 4.954179633079e-03 -1.331225716718e+05 -5.183781654424e-01 0.000000000000e+00 
1730951766 1.390900432834e+00 -3.101743781213e-01 -9.817999447043e+01 2.118243323349e+00 -2.525438258045e-02 -3.617982911028e-02 5.595619576404e-01 2.073590948520e+00 6.077818263657e+01 -2.904203934555e-04 -5.131778025752e-04 4.661965288965e-03 -2.079543257569e-01 -1.231662719367e-01 1.003269408541e+00 9.993798513642e-03 1.000701070605e-02 6.336675685196e-01 4.950794934807e-03 -1.331230321702e+05 -5.330437701821e-01 0.000000000000e+00 
1730951766 1.597943666272e+00 -5.638965782014e-01 -1.004542119466e+02 2.989013218710e+00 -3.344642286906e-01 -4.041061360581e-02 5.595618178232e-01 2.073591604881e+00 6.109408646133e+01 -2.958580472222e-04 -5.097833298433e-04 4.658143397053e-03 -2.089202180142e-01 -1.337975211121e-01 1.001345904745e+00 9.993480021281e-03 1.000751497448e-02 6.338917468538e-01 4.949012237020e-03 -1.331240885124e+05 -6.493127062533e-01 0.000000000000e+00 
1730951766 1.069023876897e+00 -9.096571535539e-01 -1.030477000628e+02 3.692958986171e+00 -6.591916864151e-01 -3.181342621090e-02 5.595616930059e-01 2.073592389210e+00 6.130390660743e+01 -3.014981095528e-04 -5.082816849341e-04 4.611754195086e-03 -2.071610585608e-01 -1.420066003241e-01 1.000059802301e+00 9.993405504967e-03 1.000788725734e-02 6.342627497654e-01 4.946852164230e-03 -1.331246843970e+05 -6.559967535099e-01 0.000000000000e+00 
1730951766 1.318197810314e+00 -8.848022489154e-01 -1.048257189420e+02 4.334683608620e+00 -9.311779771362e-01 -5.602399899473e-02 5.595615544032e-01 2.073593154734e+00 6.076278087121e+01 -3.011546442372e-04 -5.086318316061e-04 4.575046600441e-03 -2.085395956829e-01 -1.433617466119e-01 9.999474028019e-01 9.993526898096e-03 1.000791167991e-02 6.341842545923e-01 4.947076430671e-03 -1.331259725963e+05 -7.076616617601e-01 0.000000000000e+00 
1730951766 1.496517271224e+00 -1.662148579700e+00 -1.051152662647e+02 4.818166750577e+00 -1.031698288207e+00 -1.454600319510e-02 5.595614410598e-01 2.073593939910e+00 6.038918348347e+01 -2.999319027508e-04 -5.114067337729e-04 4.485009839210e-03 -2.098903255307e-01 -1.405505900609e-01 9.996402656906e-01 9.993603100232e-03 1.000766851834e-02 6.339579255810e-01 4.947910936845e-03 -1.331270150935e+05 -7.270858006314e-01 0.000000000000e+00 
1730951767 1.729398112425e+00 -1.902882560098e+00 -1.047567388942e+02 5.254975588748e+00 -1.094873106420e+00 -1.432970769391e-02 5.595612961741e-01 2.073594825911e+00 5.987653331308e+01 -2.986617148129e-04 -5.140715943364e-04 4.406762999019e-03 -2.118390463009e-01 -1.386287315744e-01 9.994405790667e-01 9.993785781685e-03 1.000750378129e-02 6.337270134368e-01 4.948877632857e-03 -1.331283614664e+05 -7.769839773494e-01 0.000000000000e+00 
1730951767 1.385782643873e+00 -2.000970222921e+00 -1.049415352458e+02 5.492077659925e+00 -1.151368729191e+00 -2.642992077980e-02 5.595611468220e-01 2.073595861014e+00 5.936035870913e+01 -3.005407278288e-04 -5.173733013097e-04 4.252507977759e-03 -2.117929938387e-01 -1.389234510359e-01 9.992353462060e-01 9.993842364114e-03 1.000765170010e-02 6.337393389164e-01 4.948853630358e-03 -1.331298189940e+05 -8.370877717274e-01 0.000000000000e+00 
1730951767 1.540701832298e+00 -1.726921170582e+00 -1.053500163070e+02 5.299098961399e+00 -1.155082303393e+00 -4.359268889582e-02 5.595609757242e-01 2.073596953589e+00 5.888347707821e+01 -3.038898590435e-04 -5.200279807043e-04 4.074876091575e-03 -2.105262663296e-01 -1.421075134599e-01 9.988674259831e-01 9.993913186468e-03 1.000791769044e-02 6.339174409816e-01 4.948071958400e-03 -1.331310182238e+05 -8.484579388934e-01 0.000000000000e+00 
1730951767 3.157421437924e+00 -1.358428933995e+00 -1.052942758212e+02 5.171542023196e+00 -1.121759203809e+00 4.811094028158e-02 5.595608226138e-01 2.073598064636e+00 5.855306207055e+01 -3.085507942219e-04 -5.231750879188e-04 3.837451260289e-03 -2.079968285056e-01 -1.459186950439e-01 9.978615700193e-01 9.994007257577e-03 1.000794676145e-02 6.342582189446e-01 4.946709366398e-03 -1.331320376692e+05 -8.404791052223e-01 0.000000000000e+00 
1730951767 3.750861104108e+00 -1.220015186233e+00 -1.044441265686e+02 4.834629765888e+00 -9.266026307603e-01 1.481869869677e-01 5.595607189245e-01 2.073599113562e+00 5.852163702335e+01 -3.136788585548e-04 -5.274744755552e-04 3.551348957619e-03 -2.052122290715e-01 -1.483677023782e-01 9.970453868484e-01 9.994222687380e-03 1.000749825580e-02 6.347073148862e-01 4.944820576007e-03 -1.331330256793e+05 -8.409940682258e-01 0.000000000000e+00 
1730951767 4.589499656003e+00 -6.420265423809e-01 -1.042421645202e+02 4.731844579162e+00 -8.897472294479e-01 2.247374507509e-01 5.595605683110e-01 2.073600230066e+00 5.851467069540e+01 -3.163467736861e-04 -5.292097866932e-04 3.320528705082e-03 -2.023586691441e-01 -1.559302376920e-01 9.964787127676e-01 9.994219250661e-03 1.000771142084e-02 6.350497326997e-01 4.943211236035e-03 -1.331337811446e+05 -8.026470373760e-01 0.000000000000e+00 
1730951768 4.733924652602e+00 -6.902594952006e-01 -1.042088549702e+02 4.465714401405e+00 -8.123534444561e-01 1.760764310003e-01 5.595604297457e-01 2.073601277171e+00 5.866932482450e+01 -3.176125260115e-04 -5.313139425665e-04 3.109203109310e-03 -2.003049439716e-01 -1.621826811783e-01 9.954063795383e-01 9.994298118158e-03 1.000775942670e-02 6.352884560739e-01 4.942112615923e-03 -1.331343809753e+05 -7.567521887024e-01 0.000000000000e+00 
1730951768 4.866887214268e+00 -4.857519960168e-01 -1.041877282324e+02 4.275033167591e+00 -8.377709503577e-01 1.881575197816e-01 5.595602778881e-01 2.073602346055e+00 5.881812304040e+01 -3.164295125010e-04 -5.315296694940e-04 2.920630690617e-03 -1.975338268955e-01 -1.710001655759e-01 9.943690416818e-01 9.994242706841e-03 1.000806782826e-02 6.354782092804e-01 4.941044950782e-03 -1.331351072860e+05 -7.406674507345e-01 0.000000000000e+00 
1730951768 4.904180746003e+00 -7.025196099018e-01 -1.037058015320e+02 4.263918737604e+00 -7.978279220595e-01 2.030562814594e-01 5.595601237807e-01 2.073603369431e+00 5.907091780851e+01 -3.135147990240e-04 -5.318710421536e-04 2.759897609227e-03 -1.956005992577e-01 -1.790202118579e-01 9.932008385182e-01 9.994199515148e-03 1.000828434208e-02 6.355471304702e-01 4.940453208456e-03 -1.331358479335e+05 -7.393938400930e-01 0.000000000000e+00 
1730951768 4.774141698243e+00 -4.707718039418e-01 -1.033798711498e+02 4.307670032945e+00 -7.902073488618e-01 2.057262974558e-01 5.595599897577e-01 2.073604383015e+00 5.928380904376e+01 -3.097835823860e-04 -5.323709343211e-04 2.594389248905e-03 -1.936612597752e-01 -1.861087713347e-01 9.922212764389e-01 9.994233392226e-03 1.000853245704e-02 6.355596860655e-01 4.940118169000e-03 -1.331366433507e+05 -7.432002078390e-01 0.000000000000e+00 
1730951768 4.775703851662e+00 -9.906317503025e-01 -1.027181820715e+02 4.414850853978e+00 -7.267728759972e-01 2.089541468555e-01 5.595598728551e-01 2.073605361074e+00 5.957528773520e+01 -3.060781010322e-04 -5.338021638597e-04 2.435997232717e-03 -1.924587012911e-01 -1.914184085101e-01 9.910354727338e-01 9.994195629530e-03 1.000870671209e-02 6.355112832780e-01 4.940160641490e-03 -1.331374319788e+05 -7.525946426935e-01 0.000000000000e+00 
1730951768 4.770989969147e+00 -1.162264399093e+00 -1.023100784526e+02 4.535512224690e+00 -7.349721193694e-01 2.450222039238e-01 5.595597933997e-01 2.073606334388e+00 5.998269635421e+01 -3.032287165112e-04 -5.346268658112e-04 2.258421590007e-03 -1.906125119726e-01 -1.954222306287e-01 9.899895455557e-01 9.994060094538e-03 1.000892637606e-02 6.354973279144e-01 4.939950193899e-03 -1.331378879431e+05 -7.141130124901e-01 0.000000000000e+00 
1730951769 4.481152718539e+00 -7.201168960589e-01 -1.020841348373e+02 4.798304582276e+00 -7.654515992009e-01 1.812268538726e-01 5.595596930712e-01 2.073607325929e+00 6.041102681956e+01 -2.990986216953e-04 -5.358631506682e-04 2.113609910471e-03 -1.897288805083e-01 -1.992511430355e-01 9.882996867877e-01 9.994183562037e-03 1.000931039992e-02 6.352694500897e-01 4.940679765457e-03 -1.331386802407e+05 -7.387180330015e-01 0.000000000000e+00 
1730951769 5.273824513210e+00 -1.097902864285e+00 -1.019905522774e+02 5.154340446703e+00 -8.380868552974e-01 3.115295234229e-01 5.595595569813e-01 2.073608393161e+00 6.080842399185e+01 -2.921755750871e-04 -5.376491224454e-04 2.005230256581e-03 -1.898894750989e-01 -2.038194113803e-01 9.870223982698e-01 9.994228328944e-03 1.000933457295e-02 6.350858425283e-01 4.941207413185e-03 -1.331394306376e+05 -7.488059737121e-01 0.000000000000e+00 
1730951769 4.781279866260e+00 9.523943742543e-02 -1.014814264936e+02 5.473082041752e+00 -8.672672248447e-01 3.725122717155e-01 5.595593723881e-01 2.073609643921e+00 6.210208488810e+01 -2.764473060258e-04 -5.372188125275e-04 1.897260077979e-03 -1.905254148218e-01 -2.134354388581e-01 9.851396983688e-01 9.994496629411e-03 1.000887326706e-02 6.346961695602e-01 4.942047236313e-03 -1.331390980963e+05 -6.533061831555e-01 0.000000000000e+00 
1730951769 4.591219103871e+00 -3.672347004411e-01 -1.017181975085e+02 5.978129248494e+00 -9.810081922793e-01 3.951589013738e-01 5.595591627344e-01 2.073610919887e+00 6.331794011422e+01 -2.613387877663e-04 -5.390359228053e-04 1.831996079572e-03 -1.925602172252e-01 -2.213475726171e-01 9.828822194950e-01 9.994760798658e-03 1.000842851255e-02 6.342152671934e-01 4.943291592349e-03 -1.331397992371e+05 -7.335711670606e-01 0.000000000000e+00 
1730951769 3.990192949653e+00 -3.491606319687e-01 -1.027334763490e+02 6.420333764948e+00 -1.272054123394e+00 3.765494456143e-01 5.595589568139e-01 2.073612060357e+00 6.388016839766e+01 -2.610606510373e-04 -5.432626231546e-04 1.828896184278e-03 -1.941383685941e-01 -2.210743909326e-01 9.817006494872e-01 9.994822399040e-03 1.000828395153e-02 6.341537636922e-01 4.943721834786e-03 -1.331410400466e+05 -8.301858167431e-01 0.000000000000e+00 
1730951769 3.810833042230e+00 -7.486786383546e-01 -1.031348773561e+02 6.956032940990e+00 -1.434722392909e+00 3.657750414180e-01 5.595587464896e-01 2.073613291465e+00 6.415326030409e+01 -2.618021791642e-04 -5.469986643135e-04 1.792914742538e-03 -1.948802883854e-01 -2.202521094138e-01 9.808971040380e-01 9.994746808042e-03 1.000852488253e-02 6.340710756957e-01 4.944178984543e-03 -1.331426599951e+05 -9.449098170909e-01 0.000000000000e+00 
1730951770 2.896147307059e+00 -1.024630563460e+00 -1.038845122007e+02 7.344901912633e+00 -1.650274066556e+00 3.281874748699e-01 5.595584872834e-01 2.073614634311e+00 6.421639989365e+01 -2.595375112334e-04 -5.510626391452e-04 1.774229129439e-03 -1.960741756535e-01 -2.202725020342e-01 9.809496327206e-01 9.994791245921e-03 1.000857452767e-02 6.339836644778e-01 4.945112874790e-03 -1.331445145996e+05 -1.061412946668e+00 0.000000000000e+00 
1730951770 2.430597723773e+00 -8.976928408219e-02 -1.045345059318e+02 7.719930629574e+00 -1.858607170856e+00 3.083708391066e-01 5.595581609682e-01 2.073616134027e+00 6.494355989227e+01 -2.497556484435e-04 -5.538506019239e-04 1.767689535522e-03 -1.982679696528e-01 -2.236394543642e-01 9.802964560935e-01 9.994868750375e-03 1.000804216033e-02 6.337336481352e-01 4.945845884143e-03 -1.331447166345e+05 -9.600323562162e-01 0.000000000000e+00 
1730951770 1.436394010339e+00 1.428358715098e-01 -1.045099727831e+02 7.911947414002e+00 -1.919507829345e+00 2.951122048305e-01 5.595578515960e-01 2.073617646557e+00 6.565406204991e+01 -2.445555259320e-04 -5.552429924993e-04 1.734123614347e-03 -1.993128369501e-01 -2.256168296226e-01 9.803528193752e-01 9.995068882703e-03 1.000819241618e-02 6.334198140819e-01 4.946406046712e-03 -1.331450498067e+05 -8.956101719660e-01 0.000000000000e+00 
1730951770 1.352478424497e+00 -6.985762882566e-01 -1.042209676324e+02 7.726699435588e+00 -1.842250448427e+00 2.470664390493e-01 5.595575873525e-01 2.073619158560e+00 6.635283816472e+01 -2.413955596999e-04 -5.542818857780e-04 1.652589526114e-03 -1.991907110691e-01 -2.273540436710e-01 9.799490701836e-01 9.995054254255e-03 1.000916625035e-02 6.329699685841e-01 4.947371345090e-03 -1.331454885865e+05 -8.632862690004e-01 0.000000000000e+00 
1730951770 1.262892514466e+00 -1.174993880171e+00 -1.033237814716e+02 7.543960066107e+00 -1.688376929164e+00 2.585952537833e-01 5.595573334003e-01 2.073620585390e+00 6.714201564036e+01 -2.417600545660e-04 -5.536951974762e-04 1.603831146177e-03 -1.990324522506e-01 -2.280738136409e-01 9.793972357856e-01 9.994840151831e-03 1.000986925767e-02 6.327368405827e-01 4.947672100901e-03 -1.331459735099e+05 -8.535881226228e-01 0.000000000000e+00 
1730951771 7.861443134058e-01 -1.554250263821e+00 -1.020005385861e+02 7.846762568871e+00 -1.637535353705e+00 2.255082878281e-01 5.595570555016e-01 2.073622028296e+00 6.770730319993e+01 -2.403042463313e-04 -5.541137778394e-04 1.610768556311e-03 -1.996161090893e-01 -2.289055849200e-01 9.794663035115e-01 9.994867296776e-03 1.000995588068e-02 6.326216989182e-01 4.947759031310e-03 -1.331467315343e+05 -8.695415604220e-01 0.000000000000e+00 
1730951771 9.207290324130e-01 -1.514499386299e+00 -9.906343608746e+01 8.122311069265e+00 -1.321517668578e+00 2.460904563798e-01 5.595568055274e-01 2.073623443858e+00 6.826802194554e+01 -2.466717470921e-04 -5.544366295291e-04 1.657212380222e-03 -1.993618041498e-01 -2.276545733603e-01 9.794125583011e-01 9.994826100389e-03 1.000996376231e-02 6.328041529791e-01 4.946665248731e-03 -1.331473036563e+05 -8.571931244665e-01 0.000000000000e+00 
1730951771 1.170979538157e+00 -1.271186231842e+00 -9.587191171065e+01 8.260947690475e+00 -8.738549675643e-01 2.928889663606e-01 5.595566377351e-01 2.073624795414e+00 6.844146828615e+01 -2.631760335982e-04 -5.555495594981e-04 1.700835518220e-03 -1.975783769994e-01 -2.232343740930e-01 9.801432894841e-01 9.994546258342e-03 1.000997448257e-02 6.334119805538e-01 4.944490069703e-03 -1.331482659525e+05 -8.755187601828e-01 0.000000000000e+00 
1730951771 1.609613539240e+00 -7.360187162198e-01 -9.360772809322e+01 8.349781169068e+00 -6.386369586816e-01 3.657121364198e-01 5.595564924116e-01 2.073626219356e+00 6.892245512351e+01 -2.743659726901e-04 -5.555762711138e-04 1.769647243028e-03 -1.965380511216e-01 -2.208600203515e-01 9.805816487991e-01 9.994226896534e-03 1.001012339414e-02 6.337921310297e-01 4.943040119827e-03 -1.331487158137e+05 -8.305108582842e-01 0.000000000000e+00 
1730951771 2.415927489140e+00 -1.376417508787e+00 -9.175568920186e+01 8.433375956788e+00 -3.536823135349e-01 4.036655965076e-01 5.595564554065e-01 2.073627682299e+00 6.947805801670e+01 -2.851033118310e-04 -5.527623226398e-04 1.762777601153e-03 -1.944133208657e-01 -2.191104750555e-01 9.804148892011e-01 9.993937281432e-03 1.000985460489e-02 6.342539612010e-01 4.941193958695e-03 -1.331493668984e+05 -8.222107149202e-01 0.000000000000e+00 
1730951771 1.731476755433e+00 -2.258290958158e+00 -9.024337991157e+01 8.053199136974e+00 -1.498677448597e-01 4.624484755605e-01 5.595564982268e-01 2.073629123383e+00 7.005891877839e+01 -2.970382469075e-04 -5.477306917297e-04 1.722105776465e-03 -1.914377940487e-01 -2.177483324296e-01 9.814795050779e-01 9.993116245174e-03 1.000961062643e-02 6.348650993894e-01 4.938324961588e-03 -1.331504434418e+05 -8.797345672974e-01 0.000000000000e+00 
1730951772 2.038187325069e+00 -1.860382975875e+00 -8.875647786078e+01 7.538400854535e+00 7.468346210706e-03 4.548488276983e-01 5.595565873380e-01 2.073630490847e+00 7.074739005090e+01 -3.082461764700e-04 -5.404789484262e-04 1.668146625878e-03 -1.881202290336e-01 -2.173330591874e-01 9.821624235214e-01 9.992653966086e-03 1.000898835297e-02 6.354643310890e-01 4.935649775425e-03 -1.331512733656e+05 -8.984418797851e-01 0.000000000000e+00 
1730951772 3.142565302386e+00 -1.899707844136e+00 -8.731441353389e+01 7.366421679993e+00 1.787449978941e-01 5.232006545491e-01 5.595566572063e-01 2.073631825404e+00 7.130894648192e+01 -3.133616757769e-04 -5.350293399336e-04 1.654193886068e-03 -1.862570949407e-01 -2.177883884942e-01 9.827021238257e-01 9.992507647976e-03 1.000826238747e-02 6.358640709667e-01 4.934039271676e-03 -1.331522324258e+05 -9.203573950589e-01 0.000000000000e+00 
1730951772 2.737015142610e+00 -9.991254721516e-01 -8.555589001813e+01 7.271590825784e+00 3.983517685343e-01 5.280180914421e-01 5.595567557861e-01 2.073633176927e+00 7.179818825619e+01 -3.161450873097e-04 -5.291189139871e-04 1.640193852853e-03 -1.847090765832e-01 -2.188278367248e-01 9.839908124533e-01 9.992755744277e-03 1.000778527272e-02 6.360587036499e-01 4.932825858985e-03 -1.331533148248e+05 -9.467973879177e-01 0.000000000000e+00 
1730951772 3.560469695601e+00 -3.545833100306e-01 -8.340420963574e+01 7.358292574813e+00 6.715754597859e-01 6.127999588422e-01 5.595569102742e-01 2.073634494906e+00 7.208484213658e+01 -3.222281400046e-04 -5.231207836901e-04 1.614533474111e-03 -1.823680969494e-01 -2.191407431082e-01 9.856463797026e-01 9.993088492079e-03 1.000701260797e-02 6.364822323701e-01 4.931021451365e-03 -1.331542411196e+05 -9.274931959586e-01 0.000000000000e+00 
1730951772 3.057385056485e+00 -1.508013786858e+00 -7.961132483925e+01 7.322553106956e+00 1.184919744638e+00 5.200012689851e-01 5.595571328165e-01 2.073635837342e+00 7.246890489288e+01 -3.256836295487e-04 -5.164732605094e-04 1.585887217710e-03 -1.805331765031e-01 -2.202635950443e-01 9.871398427972e-01 9.993210493050e-03 1.000637512180e-02 6.367870793446e-01 4.929904123213e-03 -1.331548024356e+05 -8.555762010280e-01 0.000000000000e+00 
1730951772 3.534869712231e+00 -1.326772629896e+00 -7.685123584319e+01 7.316223786906e+00 1.497213574469e+00 4.302457898572e-01 5.595574089863e-01 2.073637088461e+00 7.253248477288e+01 -3.369902441551e-04 -5.134619412892e-04 1.562444642470e-03 -1.771248426326e-01 -2.188666166921e-01 9.879858859854e-01 9.993098218371e-03 1.000597637156e-02 6.373401357891e-01 4.928938467267e-03 -1.331560880205e+05 -8.852380657834e-01 0.000000000000e+00 
1730951773 3.368642554954e+00 -1.031048756764e+00 -7.500022688544e+01 7.354983479058e+00 1.828823156970e+00 3.964057878179e-01 5.595577436819e-01 2.073638330937e+00 7.254896582042e+01 -3.484562979720e-04 -5.118627493627e-04 1.524280912246e-03 -1.737082106027e-01 -2.171789214744e-01 9.888834915164e-01 9.993034649418e-03 1.000561073098e-02 6.378754818208e-01 4.928065867282e-03 -1.331571150700e+05 -8.656067485866e-01 0.000000000000e+00 
1730951773 2.401194521852e+00 -4.880636966908e-01 -7.464639079629e+01 7.509576370543e+00 1.878360800024e+00 3.592271089496e-01 5.595580974283e-01 2.073639565801e+00 7.254345976267e+01 -3.626678619456e-04 -5.117704995154e-04 1.493071629578e-03 -1.696635131879e-01 -2.151214970831e-01 9.899987293085e-01 9.992969484953e-03 1.000557525966e-02 6.383770043628e-01 4.926894535656e-03 -1.331584263258e+05 -9.031612890486e-01 0.000000000000e+00 
1730951773 2.810911511352e+00 7.511982426951e-02 -7.525591385136e+01 6.984889076351e+00 1.677757166047e+00 2.717229686539e-01 5.595584403115e-01 2.073640765102e+00 7.257248604307e+01 -3.762905147796e-04 -5.124218909201e-04 1.458523586072e-03 -1.656520234667e-01 -2.131549394023e-01 9.899625559836e-01 9.993018039064e-03 1.000541543535e-02 6.388907441811e-01 4.926187538553e-03 -1.331599346615e+05 -9.728995669607e-01 0.000000000000e+00 
1730951773 3.138655087421e+00 2.918872756870e-01 -7.624713633606e+01 6.634551976537e+00 1.512859435984e+00 3.150118975775e-01 5.595587531435e-01 2.073641914938e+00 7.244418589272e+01 -3.854186324562e-04 -5.116509236676e-04 1.421751185720e-03 -1.625945755434e-01 -2.120834448420e-01 9.904827092477e-01 9.993147703276e-03 1.000519717651e-02 6.392876824333e-01 4.925622316254e-03 -1.331614244048e+05 -1.015531170473e+00 0.000000000000e+00 
1730951773 3.316856176637e+00 1.376064564393e-01 -7.719940400529e+01 6.198691749164e+00 1.310927426345e+00 2.551173548921e-01 5.595590583951e-01 2.073643019350e+00 7.239770385040e+01 -3.936250763641e-04 -5.092613889623e-04 1.377261059268e-03 -1.596669471706e-01 -2.118582474088e-01 9.904107015991e-01 9.993303593719e-03 1.000488172036e-02 6.396833007392e-01 4.925660416997e-03 -1.331629523620e+05 -1.064566283549e+00 0.000000000000e+00 
1730951773 3.781916196347e+00 -1.717630287828e-01 -7.762420618071e+01 6.121476705582e+00 1.274028532503e+00 2.762459640038e-01 5.595593214961e-01 2.073644055363e+00 7.233206938530e+01 -4.022205118492e-04 -5.095195676901e-04 1.340650674789e-03 -1.566003055158e-01 -2.107424023115e-01 9.901928787481e-01 9.993163703406e-03 1.000458241538e-02 6.400986062842e-01 4.925123790442e-03 -1.331644537242e+05 -1.098807755948e+00 0.000000000000e+00 
1730951774 3.646854829658e+00 1.188019208196e-01 -7.823780378407e+01 6.009380202909e+00 1.208679258290e+00 2.930397017970e-01 5.595595858247e-01 2.073645062606e+00 7.236081114494e+01 -4.117812160447e-04 -5.097746435613e-04 1.296318741070e-03 -1.532060051879e-01 -2.097755346191e-01 9.902307629219e-01 9.993157476752e-03 1.000430049102e-02 6.405245770402e-01 4.924515081423e-03 -1.331656006187e+05 -1.076388192834e+00 0.000000000000e+00 
1730951774 3.727605536651e+00 6.135011279988e-01 -7.947072163957e+01 5.957151757901e+00 1.033612497339e+00 2.180429218800e-01 5.595597563668e-01 2.073646106900e+00 7.207744005677e+01 -4.148238355711e-04 -5.121074077955e-04 1.297406451437e-03 -1.516419620474e-01 -2.079922245413e-01 9.900361575664e-01 9.992785190242e-03 1.000446499792e-02 6.406044449697e-01 4.923781696269e-03 -1.331673907991e+05 -1.138058718915e+00 0.000000000000e+00 
1730951774 3.485171687958e+00 1.017173981977e+00 -8.158530775576e+01 5.703855449303e+00 7.910228027517e-01 1.855603471428e-01 5.595599132451e-01 2.073647154049e+00 7.173152411687e+01 -4.165779067541e-04 -5.128520540482e-04 1.291498040865e-03 -1.504413409265e-01 -2.068138348886e-01 9.902040513974e-01 9.992460968413e-03 1.000452751263e-02 6.406798849862e-01 4.923237989424e-03 -1.331689005364e+05 -1.140328705545e+00 0.000000000000e+00 
1730951774 3.562765691614e+00 1.979350632437e+00 -8.438543269341e+01 5.562844601833e+00 5.091124266631e-01 1.398740156306e-01 5.595600384963e-01 2.073648157402e+00 7.155991757177e+01 -4.187675154008e-04 -5.125849648381e-04 1.278312358813e-03 -1.491989894577e-01 -2.062782385265e-01 9.897168169620e-01 9.992278266743e-03 1.000455492718e-02 6.407675764009e-01 4.922842086870e-03 -1.331699629362e+05 -1.090214040926e+00 0.000000000000e+00 
1730951774 3.678971611467e+00 1.119136209191e+00 -8.541300957413e+01 5.562306223466e+00 4.197001555750e-01 1.426105544188e-01 5.595601618924e-01 2.073649095695e+00 7.131757365202e+01 -4.242656862897e-04 -5.127632845125e-04 1.250723076968e-03 -1.467026593508e-01 -2.053544310090e-01 9.893264139243e-01 9.992300109951e-03 1.000454071268e-02 6.410113866982e-01 4.922413827293e-03 -1.331708685319e+05 -1.017675243824e+00 0.000000000000e+00 
1730951774 3.616940895417e+00 6.639746029900e-01 -8.672508361648e+01 5.053090637717e+00 2.971958453888e-01 1.117034896147e-01 5.595602407356e-01 2.073650011420e+00 7.120878300455e+01 -4.283096171266e-04 -5.141540893927e-04 1.235469916454e-03 -1.449136834094e-01 -2.041802053642e-01 9.885671886779e-01 9.992247778499e-03 1.000451476607e-02 6.411810302391e-01 4.921979829958e-03 -1.331717659174e+05 -9.700619915093e-01 0.000000000000e+00 
1730951775 3.232201277477e+00 4.999035175156e-01 -8.876191133190e+01 4.700516194667e+00 1.097186853051e-01 1.275084904616e-01 5.595603131141e-01 2.073650872392e+00 7.104234518469e+01 -4.310390977474e-04 -5.136764516165e-04 1.214788427456e-03 -1.435594295320e-01 -2.037591627016e-01 9.885822416555e-01 9.992175095252e-03 1.000451415422e-02 6.413064547949e-01 4.921818431509e-03 -1.331722496866e+05 -8.606127118605e-01 0.000000000000e+00 
1730951775 3.239826675795e+00 4.061863383410e-01 -9.016102777407e+01 4.825516224638e+00 2.196912493779e-02 3.178642027260e-02 5.595603757488e-01 2.073651669340e+00 7.085236428673e+01 -4.350816966466e-04 -5.134362497176e-04 1.187474505459e-03 -1.417174360380e-01 -2.030781306970e-01 9.878449850419e-01 9.991963338055e-03 1.000459540322e-02 6.414443046461e-01 4.921487817464e-03 -1.331726205435e+05 -7.502341105983e-01 0.000000000000e+00 
1730951775 3.612786864466e+00 9.038981493392e-01 -9.147992946697e+01 5.145955162926e+00 -1.253860853313e-01 5.095068332408e-02 5.595604053326e-01 2.073652501836e+00 7.080428490199e+01 -4.401339695953e-04 -5.140828293063e-04 1.170940319217e-03 -1.397330893794e-01 -2.018750226730e-01 9.864293977192e-01 9.991758840636e-03 1.000462798066e-02 6.416207491674e-01 4.920964744121e-03 -1.331730489967e+05 -6.805637772038e-01 0.000000000000e+00 
1730951775 3.405750206526e+00 6.792119367663e-01 -9.229678071821e+01 5.284317615557e+00 -1.937123190679e-01 9.497488340798e-02 5.595603566261e-01 2.073653425915e+00 7.141678360254e+01 -4.425506151874e-04 -5.161066276951e-04 1.183097261563e-03 -1.395550711259e-01 -2.013320974178e-01 9.842108508694e-01 9.991886502053e-03 1.000446865972e-02 6.417231188409e-01 4.921086595128e-03 -1.331727302430e+05 -5.579205907358e-01 0.000000000000e+00 
1730951775 3.697600240322e+00 1.201409606635e-01 -9.351709016835e+01 5.606810576783e+00 -2.961241115306e-01 2.441764197444e-01 5.595603101125e-01 2.073654385394e+00 7.200589776565e+01 -4.459875127827e-04 -5.174984995783e-04 1.185539022301e-03 -1.391768122732e-01 -2.008938739265e-01 9.825923327372e-01 9.991958015359e-03 1.000438033573e-02 6.418430125336e-01 4.921207078775e-03 -1.331728965849e+05 -5.294809713103e-01 0.000000000000e+00 
1730951775 3.835805768271e+00 2.503688034718e-01 -9.372242025540e+01 6.033169530526e+00 -4.442936310549e-01 2.091511037386e-01 5.595602228861e-01 2.073655463234e+00 7.252919779394e+01 -4.458527714108e-04 -5.180897333215e-04 1.202776938977e-03 -1.394763290910e-01 -2.008787269711e-01 9.805072089402e-01 9.992111822387e-03 1.000437449322e-02 6.418194588896e-01 4.921491685806e-03 -1.331734725142e+05 -5.600957106917e-01 0.000000000000e+00 
1730951776 3.565073015305e+00 3.410845055237e-01 -9.357157857229e+01 6.104382491136e+00 -3.614687570844e-01 3.022541608237e-01 5.595601376374e-01 2.073656524463e+00 7.316266542394e+01 -4.496277058754e-04 -5.192072624770e-04 1.215542471091e-03 -1.394804376753e-01 -2.002310696945e-01 9.792090757697e-01 9.992204251713e-03 1.000427323067e-02 6.419525972295e-01 4.921792920162e-03 -1.331738088359e+05 -5.561857461482e-01 0.000000000000e+00 
1730951776 3.917604101114e+00 -3.075345466269e-01 -9.388735650753e+01 6.075738052352e+00 -4.249346891373e-01 3.543361306327e-01 5.595600858319e-01 2.073657554490e+00 7.360466129911e+01 -4.547546682538e-04 -5.189225314879e-04 1.216430114293e-03 -1.389197734816e-01 -1.988659159731e-01 9.787823087966e-01 9.992228775687e-03 1.000429942811e-02 6.421234212507e-01 4.921422795806e-03 -1.331737574805e+05 -4.709112766336e-01 0.000000000000e+00 
1730951776 3.676197389957e+00 -1.430456218423e-01 -9.425880235115e+01 6.200105080480e+00 -5.027386089210e-01 3.604320010697e-01 5.595600479856e-01 2.073658603840e+00 7.423581033792e+01 -4.594771081653e-04 -5.173775672409e-04 1.206430880213e-03 -1.381629377053e-01 -1.978788043865e-01 9.780066799081e-01 9.991978681185e-03 1.000433035056e-02 6.423039672154e-01 4.920029686576e-03 -1.331740658752e+05 -4.709188281575e-01 0.000000000000e+00 
1730951776 3.663282420245e+00 1.658798225167e-01 -9.431701084548e+01 6.312681255992e+00 -5.003524898385e-01 3.727919452502e-01 5.595599802402e-01 2.073659659371e+00 7.497928505905e+01 -4.652390166618e-04 -5.161851397761e-04 1.209233006085e-03 -1.381324797221e-01 -1.967854281807e-01 9.771376755063e-01 9.991841392580e-03 1.000428787610e-02 6.425271590027e-01 4.919103576852e-03 -1.331740572055e+05 -4.311216272829e-01 0.000000000000e+00 
1730951776 4.023608404874e+00 2.971568098568e-01 -9.479463599765e+01 6.401970751478e+00 -5.267799934763e-01 4.258792075795e-01 5.595599243278e-01 2.073660732475e+00 7.582544387862e+01 -4.711509845905e-04 -5.145492908486e-04 1.200750740850e-03 -1.381395273698e-01 -1.957641254826e-01 9.761030701235e-01 9.991691693677e-03 1.000421337547e-02 6.427927498729e-01 4.917568001633e-03 -1.331743082810e+05 -4.440041076574e-01 0.000000000000e+00 
1730951777 3.716115862341e+00 -1.872794956678e-01 -9.501879132839e+01 6.518207943013e+00 -5.834892043247e-01 4.730472045352e-01 5.595598571404e-01 2.073661869374e+00 7.631775950901e+01 -4.738740371270e-04 -5.133031850825e-04 1.194024822554e-03 -1.381428367662e-01 -1.948380628125e-01 9.763107763208e-01 9.991514669455e-03 1.000427062224e-02 6.428986140596e-01 4.916591656675e-03 -1.331750663251e+05 -5.006193039897e-01 0.000000000000e+00 
1730951777 2.942864165767e+00 7.431603381026e-02 -9.555075387065e+01 6.514307277323e+00 -6.448763388709e-01 3.541516996893e-01 5.595597859151e-01 2.073662976112e+00 7.648721150574e+01 -4.779020662292e-04 -5.111565108881e-04 1.185432630101e-03 -1.385268335183e-01 -1.927496966793e-01 9.766666438152e-01 9.991408711474e-03 1.000458653817e-02 6.429931864135e-01 4.916085754252e-03 -1.331765886512e+05 -6.519977984358e-01 0.000000000000e+00 
1730951777 2.906791283959e+00 2.387800720630e-01 -9.574643338146e+01 6.723379359648e+00 -6.657788100617e-01 3.461233653170e-01 5.595597137657e-01 2.073664178395e+00 7.653542750739e+01 -4.781029892905e-04 -5.104196952506e-04 1.168594033837e-03 -1.382231014467e-01 -1.916286372523e-01 9.772330095706e-01 9.991376481968e-03 1.000475303833e-02 6.429970798197e-01 4.915834681548e-03 -1.331778254773e+05 -7.213996473227e-01 0.000000000000e+00 
1730951777 2.923630364544e+00 7.136826023888e-01 -9.600937780601e+01 6.850275175452e+00 -7.451915019446e-01 3.224483690017e-01 5.595596463574e-01 2.073665402888e+00 7.681904838629e+01 -4.788009648251e-04 -5.090902521257e-04 1.149154914215e-03 -1.377946206704e-01 -1.904770652436e-01 9.771619726319e-01 9.991459728746e-03 1.000492091158e-02 6.430351653621e-01 4.915494700576e-03 -1.331788742472e+05 -7.680034371301e-01 0.000000000000e+00 
1730951777 2.556317317159e+00 1.897205748095e+00 -9.598200287758e+01 7.181785232662e+00 -7.880622679197e-01 3.551444490955e-01 5.595595632623e-01 2.073666652225e+00 7.701083816235e+01 -4.799222948146e-04 -5.074827554870e-04 1.135105314254e-03 -1.377102467970e-01 -1.890425673140e-01 9.778284285731e-01 9.991583036977e-03 1.000508118613e-02 6.431105039617e-01 4.914928726731e-03 -1.331797624454e+05 -7.758503823740e-01 0.000000000000e+00 
1730951777 2.005155771875e+00 1.066297715184e+00 -9.541809374397e+01 7.509545181237e+00 -6.782157852850e-01 2.394891335236e-01 5.595596008505e-01 2.073667864908e+00 7.747078211209e+01 -4.848968552259e-04 -5.032074070252e-04 1.063460826219e-03 -1.373244499643e-01 -1.853387057482e-01 9.779780268438e-01 9.991818284313e-03 1.000617165640e-02 6.432063415065e-01 4.913763932869e-03 -1.331796783806e+05 -6.563549641095e-01 0.000000000000e+00 
1730951778 1.692985235056e+00 9.076248559259e-01 -9.517811274232e+01 7.592257429148e+00 -5.996386247914e-01 2.865921475599e-01 5.595595683162e-01 2.073669134845e+00 7.772399869313e+01 -4.903793905964e-04 -5.000937425824e-04 1.029523346019e-03 -1.385894871270e-01 -1.825329663546e-01 9.787339012708e-01 9.991654105281e-03 1.000669772587e-02 6.433783062750e-01 4.912322386897e-03 -1.331802593486e+05 -6.508603471045e-01 0.000000000000e+00 
1730951778 1.119677663005e+00 8.268522700637e-01 -9.554913333558e+01 7.480407694195e+00 -6.340669029128e-01 2.455879001293e-01 5.595595340765e-01 2.073670438230e+00 7.818603341495e+01 -4.945322988027e-04 -4.981131091509e-04 9.939172439310e-04 -1.392024134155e-01 -1.809656362017e-01 9.790519063564e-01 9.991518070304e-03 1.000752920288e-02 6.434195377641e-01 4.911652945132e-03 -1.331808597758e+05 -6.692341242058e-01 0.000000000000e+00 
1730951778 8.158347918190e-01 2.784351511507e-01 -9.632035511468e+01 7.671119673691e+00 -7.047043415934e-01 2.607392713776e-01 5.595594874906e-01 2.073671752521e+00 7.844802126096e+01 -4.983207179105e-04 -4.968415290798e-04 9.572773138749e-04 -1.399389502406e-01 -1.794660617419e-01 9.800680489850e-01 9.991172483410e-03 1.000829310397e-02 6.434601672047e-01 4.910838533008e-03 -1.331814897908e+05 -6.776420311187e-01 0.000000000000e+00 
1730951778 7.287546441174e-03 4.990410904733e-01 -9.803893775582e+01 7.571916085245e+00 -9.639929152763e-01 9.115190755099e-02 5.595594166256e-01 2.073673116204e+00 7.869884468674e+01 -5.006113841084e-04 -4.960315448762e-04 9.186969022061e-04 -1.399420816586e-01 -1.783334904149e-01 9.804633414233e-01 9.990952223172e-03 1.000933734736e-02 6.434574296679e-01 4.911600293047e-03 -1.331821165989e+05 -6.874488362089e-01 0.000000000000e+00 
1730951778 2.253469615508e-01 5.257947707319e-01 -9.830101435583e+01 7.674707973740e+00 -9.872727770612e-01 1.129385337851e-01 5.595593393541e-01 2.073674487900e+00 7.878645269383e+01 -5.016736100251e-04 -4.960132430231e-04 8.727564536533e-04 -1.394549644503e-01 -1.772037542605e-01 9.809964794138e-01 9.990749428187e-03 1.001006529860e-02 6.434608284039e-01 4.912258886297e-03 -1.331829776922e+05 -7.225117032591e-01 0.000000000000e+00 
1730951778 4.365268027405e-02 1.256113049185e+00 -9.891148596243e+01 7.274009249894e+00 -1.000786361653e+00 1.149130556476e-01 5.595592495936e-01 2.073675836697e+00 7.885501011021e+01 -5.039415449642e-04 -4.953126495045e-04 8.301445861542e-04 -1.395837028383e-01 -1.756648909847e-01 9.816580970158e-01 9.990988310060e-03 1.001068284734e-02 6.435957458888e-01 4.912344868636e-03 -1.331841087704e+05 -7.972730789810e-01 0.000000000000e+00 
