lcTime pitch roll yaw velE velN velU lat lon height biasGx biasGy biasGz biasAx biasAy biasAz leverx levery leverz dt psrCorr psrRateDrift utc
1730951587 -1.104764596201e+00 -4.068783621782e+00 1.503433489345e+01 -2.538130281300e-01 3.698328485670e-01 9.975685277955e-01 5.595419109477e-01 2.073588126620e+00 3.684851442519e+01 -1.748431319900e-06 -2.948000210946e-06 -1.866742774725e-07 -2.124855774719e-05 -2.126469826013e-04 2.125887325127e-02 1.000027192821e-02 9.999893113311e-03 8.190899653609e-01 5.000765404976e-03 -1.331315337894e+05 9.856830211551e+00 0.000000000000e+00 
1730951587 -9.767425191891e-01 -3.656266214741e+00 1.510515620662e+01 -3.878537923595e-01 6.650518880722e-01 1.792642682860e+00 5.595419609468e-01 2.073587032085e+00 4.032426629221e+01 -1.206132505016e-05 -1.453823015069e-05 -9.238157024552e-07 3.174337729757e-03 -1.242715904876e-03 9.422133589969e-02 9.999683477299e-03 9.999753831690e-03 7.549789866962e-01 4.996966753746e-03 -1.331268508537e+05 1.559539806146e+00 0.000000000000e+00 
1730951588 -6.032999454493e-01 -3.472049056029e+00 1.520679437954e+01 -4.428217255914e-01 7.795964921540e-01 2.278930067227e+00 5.595420407094e-01 2.073586585524e+00 4.358443895200e+01 -3.885225734289e-05 -3.535171335208e-05 -2.134499520307e-06 9.570106670677e-03 -2.338895350971e-03 2.222400073642e-01 9.999240236671e-03 9.999444480759e-03 7.048694979959e-01 4.993851645126e-03 -1.331243659757e+05 1.085259625451e+00 0.000000000000e+00 
1730951588 -6.921762132677e-01 -3.399186531020e+00 1.534017468267e+01 -5.711510438592e-01 1.096109479424e+00 2.388762084298e+00 5.595421811173e-01 2.073586274364e+00 4.615061468434e+01 -6.843843301155e-05 -6.978029298748e-05 -5.167175525531e-06 1.691596965004e-02 -3.705331008808e-03 3.761723260416e-01 9.998943113927e-03 9.999178075707e-03 6.695112395115e-01 4.991943448906e-03 -1.331225902477e+05 9.302648693003e-01 0.000000000000e+00 
1730951588 -3.167024190923e-01 -3.321774871524e+00 1.549854622670e+01 -5.594409982749e-01 1.021702020216e+00 2.266842621599e+00 5.595422610900e-01 2.073586114832e+00 4.788529822445e+01 -1.202659180782e-04 -1.270731600618e-04 -9.199014667257e-06 2.376413960811e-02 -4.054047226317e-03 5.210539887879e-01 9.998719613849e-03 9.999246818304e-03 6.412687576372e-01 4.986958112410e-03 -1.331212571006e+05 8.741041154707e-01 0.000000000000e+00 
1730951588 1.660134319990e-02 -3.270553520258e+00 1.567518720974e+01 -5.423704849652e-01 8.369554863133e-01 2.048742391997e+00 5.595422807422e-01 2.073585974842e+00 4.934849163828e+01 -1.649230281510e-04 -2.045599974456e-04 -1.537020567227e-05 2.866822337520e-02 -2.645722691624e-03 6.375921673786e-01 9.998436680514e-03 9.999560176949e-03 6.075715444307e-01 4.980282967270e-03 -1.331203844522e+05 7.029048938022e-01 0.000000000000e+00 
1730951589 7.912376706943e-02 -3.176210684459e+00 1.577871182609e+01 -5.712880800397e-01 9.411111108166e-01 1.766456021324e+00 5.595423858273e-01 2.073585855780e+00 5.006134150217e+01 -1.789889460132e-04 -3.170038802629e-04 -2.091516053722e-05 3.225548102891e-02 -4.679749944002e-04 7.268388307057e-01 9.998238556081e-03 9.999700321367e-03 5.877915301470e-01 4.974779365676e-03 -1.331196751745e+05 6.415957801833e-01 0.000000000000e+00 
1730951589 1.438410708122e-01 -3.015111608351e+00 1.597500145749e+01 -5.467191859816e-01 9.072679801881e-01 1.507950050097e+00 5.595424465665e-01 2.073585773832e+00 5.064307211677e+01 -2.133360638998e-04 -4.504775308917e-04 -2.612619488882e-05 3.465040154722e-02 1.564096955821e-03 7.902448305643e-01 9.998020334270e-03 9.999718420255e-03 5.658716017051e-01 4.968393363365e-03 -1.331191252003e+05 5.735921078044e-01 0.000000000000e+00 
1730951589 2.819178753482e-01 -2.889610068440e+00 1.604920094915e+01 -4.877901486559e-01 7.945309718911e-01 1.312136667770e+00 5.595424563379e-01 2.073585741549e+00 5.102299308821e+01 -2.711936821832e-04 -5.960061029777e-04 -2.664110572838e-05 3.641022544423e-02 3.784327388875e-03 8.356929775006e-01 9.997851463870e-03 9.999766874838e-03 5.466034982560e-01 4.963754460985e-03 -1.331191552940e+05 4.389207675723e-01 0.000000000000e+00 
1730951589 3.951327465676e-01 -2.795556751519e+00 1.607357230888e+01 -4.239817591963e-01 6.867754026749e-01 1.135779337534e+00 5.595424610551e-01 2.073585711448e+00 5.145749469209e+01 -3.365094700402e-04 -7.360021640540e-04 -2.522193056190e-05 3.738380074785e-02 5.980794985312e-03 8.678144577422e-01 9.997709163038e-03 9.999741123936e-03 5.264035543096e-01 4.960338286364e-03 -1.331191622345e+05 3.327952704673e-01 0.000000000000e+00 
1730951589 5.043091280279e-01 -2.717425726245e+00 1.613366287138e+01 -3.584667705253e-01 5.995335336990e-01 9.992506234895e-01 5.595424570326e-01 2.073585681614e+00 5.169668785162e+01 -4.162052115551e-04 -8.488666760953e-04 -2.382497537525e-05 3.777684774066e-02 8.181403033506e-03 8.922173575823e-01 9.997618230203e-03 9.999716188498e-03 5.107095944436e-01 4.957962879285e-03 -1.331192387973e+05 2.580733801825e-01 0.000000000000e+00 
1730951590 6.493263017794e-01 -2.600357290161e+00 1.624173560353e+01 -2.938664868898e-01 4.867191237719e-01 8.835587227184e-01 5.595424335776e-01 2.073585657247e+00 5.189979423349e+01 -5.271342053015e-04 -9.311004456942e-04 -2.114500886259e-05 3.787431937437e-02 1.027314613383e-02 9.104385076020e-01 9.997536856987e-03 9.999679165186e-03 4.965261991576e-01 4.956614963932e-03 -1.331194016938e+05 1.879171394087e-01 0.000000000000e+00 
1730951590 7.366394766917e-01 -2.550719630235e+00 1.625332234525e+01 -2.238584939167e-01 4.066102449066e-01 7.968654180250e-01 5.595424208082e-01 2.073585635205e+00 5.215972900242e+01 -6.325602855396e-04 -9.807367225836e-04 -1.742767083962e-05 3.788394405327e-02 1.207688450555e-02 9.240655158870e-01 9.997491309432e-03 9.999606406236e-03 4.824752650834e-01 4.956595098498e-03 -1.331194448524e+05 1.456986576037e-01 0.000000000000e+00 
1730951590 8.844897678138e-01 -2.520837201702e+00 1.619538114184e+01 -1.173292328906e-01 2.352228615363e-01 7.171621276492e-01 5.595423573381e-01 2.073585644267e+00 5.231274956027e+01 -8.180612688803e-04 -9.844069208888e-04 -6.505837181185e-06 3.807837553472e-02 1.394510274622e-02 9.348713142050e-01 9.997509292919e-03 9.999531576838e-03 4.712909775604e-01 4.957828332011e-03 -1.331196789521e+05 9.205604528045e-02 0.000000000000e+00 
1730951590 9.798663786986e-01 -2.505660338569e+00 1.614559078045e+01 -5.294827358082e-02 1.476726587827e-01 6.572188274043e-01 5.595423194441e-01 2.073585646539e+00 5.255210735849e+01 -9.333441559200e-04 -9.639368671651e-04 6.724012942119e-07 3.819603361040e-02 1.544819188397e-02 9.430162038963e-01 9.997512368211e-03 9.999448774626e-03 4.603435499101e-01 4.959324310350e-03 -1.331198954191e+05 4.280287046362e-02 0.000000000000e+00 
1730951590 1.298081087356e+00 -2.517032858543e+00 1.834981881975e+01 -1.338199180779e-01 4.472188914319e-01 5.917386173883e-01 5.595422963757e-01 2.073585648994e+00 5.271729220291e+01 -1.042633033120e-03 -9.382416376888e-04 7.950635190257e-06 3.828752897377e-02 1.687868975216e-02 9.497125790287e-01 9.997542079822e-03 9.999430360010e-03 4.515126588863e-01 4.961059649154e-03 -1.331197387256e+05 7.162774828444e-02 0.000000000000e+00 
1730951591 1.180431164436e+00 -2.277314609472e+00 2.656555844578e+01 -3.183063800540e-01 6.982311144451e-01 5.360521402703e-01 5.595423282100e-01 2.073585616061e+00 5.289805636591e+01 -1.165189870229e-03 -9.002842408901e-04 1.436581467537e-05 3.834207463957e-02 1.808949796431e-02 9.548175299774e-01 9.997499880303e-03 9.999324903239e-03 4.437876057024e-01 4.962844758427e-03 -1.331197501886e+05 6.553808721740e-02 0.000000000000e+00 
1730951591 9.264536187456e-01 -2.218632537117e+00 3.836666656745e+01 -5.099767346505e-01 7.199279896960e-01 5.027114296460e-01 5.595424224245e-01 2.073585543999e+00 5.310341004998e+01 -1.205660512016e-03 -8.757870410968e-04 1.901353044338e-05 3.839753336683e-02 1.884971027901e-02 9.589466832147e-01 9.997488600732e-03 9.999164942608e-03 4.362553822304e-01 4.964407369498e-03 -1.331194884101e+05 1.035879327900e-01 0.000000000000e+00 
1730951591 4.932563865949e-01 -2.170334115144e+00 4.772247926767e+01 -2.593097508834e-01 3.150053306329e-01 4.607342560531e-01 5.595425012694e-01 2.073585468284e+00 5.328525690750e+01 -1.213111495469e-03 -8.507020277534e-04 2.239173825540e-05 3.850352909495e-02 1.888768442810e-02 9.623725196068e-01 9.997481546651e-03 9.999088422449e-03 4.296151894440e-01 4.965575431763e-03 -1.331192627160e+05 1.308607906271e-01 0.000000000000e+00 
1730951591 4.592949605287e-01 -1.813421886006e+00 5.439653199410e+01 -1.287409194811e-01 2.226197497581e-01 4.462406358101e-01 5.595425359059e-01 2.073585438388e+00 5.354882914235e+01 -1.235573482066e-03 -8.206557501493e-04 2.865613563673e-05 3.904910279567e-02 1.735542269562e-02 9.649678344995e-01 9.997520397195e-03 9.999114179737e-03 4.225333917960e-01 4.966850459966e-03 -1.331191243504e+05 1.304962840293e-01 0.000000000000e+00 
1730951591 3.359477888934e-01 -1.325072402440e+00 5.973632772271e+01 -2.611698063546e-01 3.309873379262e-01 4.024266568898e-01 5.595426131248e-01 2.073585362685e+00 5.374092769004e+01 -1.201684982016e-03 -7.612878089766e-04 3.384146668367e-05 3.941021679486e-02 1.353532966123e-02 9.672785333877e-01 9.997707154513e-03 9.999220204768e-03 4.171372004292e-01 4.967445068009e-03 -1.331190939206e+05 1.191952191910e-01 0.000000000000e+00 
1730951592 1.119975872888e+00 -1.090405543628e+00 5.975293822587e+01 -4.736235206342e-01 4.943276818313e-01 3.690221663228e-01 5.595427401129e-01 2.073585169585e+00 5.401501355718e+01 -1.084564120774e-03 -6.242109096491e-04 3.344102585972e-05 3.735271064947e-02 5.136168298502e-03 9.691944842389e-01 9.997897924268e-03 9.999015363813e-03 4.110867304263e-01 4.967356711693e-03 -1.331189715753e+05 1.133306754487e-01 0.000000000000e+00 
1730951592 1.805073156211e+00 -4.288286765101e-01 5.364386144371e+01 -1.199940050491e+00 1.249008826081e+00 4.445542676820e-01 5.595429773924e-01 2.073584871908e+00 5.424307020730e+01 -9.371024262700e-04 -4.860462129833e-04 6.069805330508e-05 3.377750110694e-02 -6.321369046605e-03 9.712962822572e-01 9.998511787950e-03 9.998447267669e-03 4.054384270821e-01 4.967061758497e-03 -1.331186480800e+05 1.496518862763e-01 0.000000000000e+00 
1730951592 1.285781511171e+00 -3.108722040989e-01 4.141759470449e+01 -1.285054325355e+00 2.070264082020e+00 4.041179946611e-01 5.595433238398e-01 2.073584511167e+00 5.444126214985e+01 -8.067461457149e-04 -3.619396885542e-04 1.243819805957e-04 2.893099841137e-02 -1.882029575345e-02 9.732862566488e-01 9.998986574530e-03 9.998260387392e-03 4.016940408097e-01 4.966854890618e-03 -1.331185801780e+05 1.480148158191e-01 0.000000000000e+00 
1730951592 1.830396929768e+00 -4.919450931340e-01 3.247739178407e+01 -1.229994455860e+00 2.776247886259e+00 4.000567091571e-01 5.595437745658e-01 2.073584218011e+00 5.466209963664e+01 -7.031911480149e-04 -2.883599261215e-04 2.320281806156e-04 2.498842849543e-02 -2.634516167815e-02 9.747196206712e-01 9.999273533102e-03 9.997900737870e-03 3.985147614161e-01 4.967027601813e-03 -1.331185378619e+05 1.413476159316e-01 0.000000000000e+00 
1730951592 1.290209076421e+00 -3.343666572203e-01 2.658376232835e+01 -1.152726735575e+00 3.311345728912e+00 3.849817209827e-01 5.595443045244e-01 2.073583984555e+00 5.518992894847e+01 -6.151774478136e-04 -2.466668157749e-04 3.731792253622e-04 2.227525718571e-02 -2.906470872192e-02 9.752810393093e-01 9.999629611740e-03 9.997797296669e-03 3.930276204239e-01 4.967921179285e-03 -1.331181876436e+05 1.607807053731e-01 0.000000000000e+00 
1730951593 1.050968523786e+00 -4.386044643644e-01 2.295614283581e+01 -1.368925416294e+00 4.242735117173e+00 3.580295798860e-01 5.595449504847e-01 2.073583775751e+00 5.559388641066e+01 -5.394560821858e-04 -2.351521317376e-04 5.519295131725e-04 2.092461204896e-02 -2.745333814819e-02 9.757629569803e-01 9.999796150096e-03 9.997869689163e-03 3.887325797599e-01 4.968764496800e-03 -1.331180377067e+05 1.540373798397e-01 0.000000000000e+00 
1730951593 8.284786319732e-01 -4.498638742475e-01 1.925410546407e+01 -1.381842671590e+00 5.098614520942e+00 3.576063786911e-01 5.595457419484e-01 2.073583634215e+00 5.617660065629e+01 -4.774826137651e-04 -2.659148027747e-04 8.387004204563e-04 2.087561012750e-02 -2.278144391137e-02 9.757033433974e-01 9.999945522695e-03 9.998086260966e-03 3.834322981282e-01 4.969453796239e-03 -1.331176349789e+05 1.759730357551e-01 0.000000000000e+00 
1730951593 3.773832318853e-01 -7.843624532604e-02 1.688603535533e+01 -1.288442693474e+00 5.439992381693e+00 3.831715112003e-01 5.595466408684e-01 2.073583519748e+00 5.649333897573e+01 -4.109684023256e-04 -3.003612518452e-04 1.154360376290e-03 2.041889246062e-02 -1.715296850854e-02 9.762801987909e-01 1.000011965439e-02 9.998513229242e-03 3.788964770348e-01 4.969475608603e-03 -1.331176438692e+05 1.522377209870e-01 0.000000000000e+00 
1730951593 4.350456222841e-01 1.114664970955e-01 1.513349663464e+01 -1.146513639333e+00 5.369739274786e+00 3.788205348308e-01 5.595475366033e-01 2.073583485370e+00 5.677791266654e+01 -3.597546076470e-04 -3.511154701366e-04 1.500180573104e-03 1.961462903513e-02 -1.226704717793e-02 9.768617088763e-01 1.000025940264e-02 9.998808862423e-03 3.748502391590e-01 4.969229659537e-03 -1.331174987432e+05 1.629392474159e-01 0.000000000000e+00 
1730951593 5.785057903260e-01 3.394382091879e-01 1.334141340612e+01 -1.064286654773e+00 5.735521265568e+00 3.897907497846e-01 5.595484432061e-01 2.073583536852e+00 5.700665570365e+01 -3.310935759837e-04 -4.137548935894e-04 1.895204601805e-03 1.792144601905e-02 -7.994338315073e-03 9.775535661583e-01 1.000035139051e-02 9.999036323804e-03 3.718723202813e-01 4.967984636241e-03 -1.331173091665e+05 1.898004028094e-01 0.000000000000e+00 
1730951594 5.979085187996e-01 2.666819096843e-01 1.208022039568e+01 -1.075673724426e+00 6.138161958749e+00 4.130868836575e-01 5.595494228547e-01 2.073583537867e+00 5.734058435281e+01 -3.016343484055e-04 -4.652403958260e-04 2.207857247402e-03 1.553380572459e-02 -6.660948461354e-03 9.781937387943e-01 1.000038154271e-02 9.999133693342e-03 3.682392260108e-01 4.967444072784e-03 -1.331169526659e+05 2.310350807451e-01 0.000000000000e+00 
1730951594 7.065592934699e-01 -9.818759078080e-02 1.195201004181e+01 -1.199158501716e+00 6.584177304418e+00 3.970259316025e-01 5.595505042837e-01 2.073583432694e+00 5.757176780605e+01 -2.521266999221e-04 -4.974220576312e-04 2.407199799541e-03 1.566134417004e-02 -6.886502404340e-03 9.788290695576e-01 1.000011784469e-02 9.998983620551e-03 3.648751865308e-01 4.968348823567e-03 -1.331171545402e+05 1.806073314912e-01 0.000000000000e+00 
1730951594 5.586595332868e-01 1.502305824912e-01 1.150249675102e+01 -1.231005586655e+00 6.926808434818e+00 3.866345441922e-01 5.595515332100e-01 2.073583340483e+00 5.797364036552e+01 -2.770559427927e-04 -5.097894031125e-04 2.583491889814e-03 9.264671514203e-03 -4.898749728065e-03 9.794476368047e-01 1.000018307886e-02 9.999144367731e-03 3.624253406129e-01 4.966593012690e-03 -1.331162474091e+05 3.000124228256e-01 0.000000000000e+00 
1730951594 1.237830503233e-01 2.337345475761e-01 9.982378634149e+00 -1.048569450839e+00 7.029459809590e+00 4.040177900558e-01 5.595527870909e-01 2.073583310759e+00 5.814212193707e+01 -2.103841642664e-04 -5.769248457866e-04 2.862919884843e-03 1.105046377607e-02 -1.331801920033e-02 9.802655785859e-01 9.999967211054e-03 9.999177461831e-03 3.583529299629e-01 4.968516778536e-03 -1.331160302519e+05 3.215036033267e-01 0.000000000000e+00 
1730951594 1.100913617274e-01 7.646013546978e-01 9.204849139556e+00 -9.473873347426e-01 6.935905934040e+00 4.061219231969e-01 5.595540365244e-01 2.073583170143e+00 5.806729081556e+01 -1.367598784634e-04 -6.062577106048e-04 2.992425084226e-03 1.798921347489e-02 -1.763101440141e-02 9.810930749374e-01 1.000003347410e-02 9.998998039759e-03 3.541543429774e-01 4.971619095003e-03 -1.331158940510e+05 3.436152180573e-01 0.000000000000e+00 
1730951595 -4.043452980099e-01 6.842585352007e-01 6.995842552413e+00 -5.731833622593e-01 6.488938063746e+00 3.310282091084e-01 5.595552807462e-01 2.073583311450e+00 5.790606602560e+01 -7.920876188806e-05 -6.852869827620e-04 3.348373863695e-03 1.899984535589e-02 -2.972526683947e-02 9.823354893922e-01 9.999797380128e-03 9.999119911480e-03 3.516081861265e-01 4.973461085230e-03 -1.331160747218e+05 3.282794898409e-01 0.000000000000e+00 
1730951595 -5.079565053989e-01 9.621738049315e-01 4.717724280386e+00 -1.776500629385e-01 5.850317197893e+00 3.461697084813e-01 5.595563014759e-01 2.073583666646e+00 5.763376495814e+01 -9.136903445098e-05 -7.537289974604e-04 3.794399649299e-03 6.135575945570e-03 -3.794268103878e-02 9.841757070538e-01 9.999490830805e-03 9.999277443870e-03 3.513257137840e-01 4.970962762571e-03 -1.331168742596e+05 2.120455196394e-01 0.000000000000e+00 
1730951595 -5.293040884178e-01 1.403262483214e+00 2.263259136419e+00 2.594809876357e-01 4.984337531627e+00 3.282963967291e-01 5.595570991846e-01 2.073584122006e+00 5.751350362881e+01 -1.319575748000e-04 -7.994688276562e-04 4.258723185703e-03 -1.179223910252e-02 -4.075015926460e-02 9.858421778998e-01 9.999161597233e-03 9.999447367749e-03 3.515102579589e-01 4.966915927952e-03 -1.331170857382e+05 1.725846846787e-01 0.000000000000e+00 
1730951595 -2.484340857211e-01 1.571464168377e+00 7.065779014480e-01 4.667798983013e-01 4.532509922984e+00 2.901387805810e-01 5.595577976237e-01 2.073584497187e+00 5.744454557408e+01 -1.522707092882e-04 -8.218177651164e-04 4.612097664123e-03 -2.253309836838e-02 -3.955490239913e-02 9.869554960976e-01 9.998884201114e-03 9.999477549590e-03 3.509117901435e-01 4.964418798349e-03 -1.331174396650e+05 1.117059228866e-01 0.000000000000e+00 
1730951595 -7.401816197289e-01 1.600987128116e+00 5.858202166008e-02 5.751246194155e-01 4.341801452087e+00 2.674316579687e-01 5.595584678650e-01 2.073584729621e+00 5.712496460266e+01 -1.548928502077e-04 -8.186263336227e-04 4.834819763529e-03 -2.686338180804e-02 -3.239754579935e-02 9.879502133230e-01 9.998606647000e-03 9.999417778913e-03 3.495695035660e-01 4.963369667398e-03 -1.331182167973e+05 1.968516595533e-02 0.000000000000e+00 
1730951596 -1.064608716678e-01 1.456183377843e+00 -7.645375817749e-01 6.076372452977e-01 4.152407147813e+00 3.083318134859e-01 5.595591095344e-01 2.073584885678e+00 5.686390426825e+01 -1.538925401533e-04 -8.056235322442e-04 4.979791675126e-03 -2.912726747295e-02 -2.344179058461e-02 9.886645430463e-01 9.998446048329e-03 9.999359041791e-03 3.478426142517e-01 4.962895877570e-03 -1.331190311863e+05 -7.067733127363e-02 0.000000000000e+00 
1730951596 -1.285636470786e+00 5.259620884267e-01 -4.219841676038e+00 7.897522333969e-01 3.879443460936e+00 2.496409230897e-01 5.595597047733e-01 2.073585009874e+00 5.656690148600e+01 -1.543004030199e-04 -7.882521045192e-04 5.072888431516e-03 -3.148069455394e-02 -1.355142646270e-02 9.894046633861e-01 9.998459316573e-03 9.999263327704e-03 3.460677160478e-01 4.962669133481e-03 -1.331199765784e+05 -1.612530028531e-01 0.000000000000e+00 
1730951596 -3.002003434985e-01 -1.887347081773e-01 -1.310017613543e+01 1.207475739439e+00 3.628898658272e+00 2.912855156899e-01 5.595602134776e-01 2.073585154784e+00 5.622877398120e+01 -1.637229206038e-04 -7.678637997615e-04 5.109963118700e-03 -3.659182274652e-02 -3.133390919781e-03 9.901366239402e-01 9.999109518428e-03 9.999544354126e-03 3.449561508097e-01 4.962390683142e-03 -1.331206232953e+05 -1.908864741404e-01 0.000000000000e+00 
1730951596 -4.965651151267e-01 3.353689884622e-02 -2.195047370046e+01 1.516564468220e+00 3.464377956353e+00 2.498574837340e-01 5.595606881552e-01 2.073585392505e+00 5.618220349938e+01 -1.777059895146e-04 -7.554716948970e-04 5.120491509585e-03 -4.451539217583e-02 2.949412010642e-03 9.907243443680e-01 9.999446637831e-03 9.999789693495e-03 3.442537629699e-01 4.961795347179e-03 -1.331208293531e+05 -1.698586453236e-01 0.000000000000e+00 
1730951596 -8.020694190548e-01 4.350245922190e-02 -2.973792084365e+01 1.848649588033e+00 3.365791799987e+00 1.863667557357e-01 5.595611118838e-01 2.073585702395e+00 5.593773916641e+01 -1.984877598185e-04 -7.451908159428e-04 5.116867197493e-03 -5.773212564932e-02 8.088483507723e-03 9.916110240067e-01 9.999599588735e-03 9.999879745910e-03 3.446600180413e-01 4.960577068766e-03 -1.331210929745e+05 -1.458846387507e-01 0.000000000000e+00 
1730951597 -1.757220382289e+00 1.373013465202e-01 -3.718706514211e+01 1.600533911332e+00 2.406129040475e+00 1.932296706753e-01 5.595614625488e-01 2.073586017219e+00 5.562679889433e+01 -2.221934021577e-04 -7.297562493602e-04 5.083252858879e-03 -7.631163034095e-02 1.645149904767e-02 9.925918088171e-01 9.999475073683e-03 9.999475718499e-03 3.453076967568e-01 4.960082957573e-03 -1.331217886021e+05 -1.949466729032e-01 0.000000000000e+00 
1730951597 -9.609490705607e-01 -2.652245246032e-01 -4.134331998921e+01 1.299776514057e+00 1.894729917223e+00 2.195339801858e-01 5.595616834855e-01 2.073586281369e+00 5.550410178440e+01 -2.366230621962e-04 -7.271098442131e-04 5.084065218993e-03 -8.997884475431e-02 1.625958177428e-02 9.934291345523e-01 9.999432773180e-03 9.999725607200e-03 3.456171861718e-01 4.960196829175e-03 -1.331219784260e+05 -1.676197258655e-01 0.000000000000e+00 
1730951597 -6.515119057478e-01 -7.248320491826e-01 -4.752368198066e+01 1.473710758380e+00 1.911195860399e+00 1.900371842185e-01 5.595618745141e-01 2.073586517410e+00 5.530548897026e+01 -2.507939802535e-04 -7.208365162938e-04 5.053744584858e-03 -1.074970247090e-01 1.848987349395e-02 9.943084658924e-01 9.999283132203e-03 1.000008725983e-02 3.464763748408e-01 4.960814644889e-03 -1.331223878087e+05 -1.752740211512e-01 0.000000000000e+00 
1730951597 -4.311814316057e-01 -9.856656228918e-01 -5.616905693650e+01 1.655988774848e+00 1.747846110720e+00 1.915270673441e-01 5.595620131114e-01 2.073586792256e+00 5.529983435225e+01 -2.650624577434e-04 -7.143214967780e-04 5.044351683734e-03 -1.295378045917e-01 2.107426225164e-02 9.950966776310e-01 9.998873044649e-03 1.000047731580e-02 3.475741591021e-01 4.962180703766e-03 -1.331228106303e+05 -2.053564850249e-01 0.000000000000e+00 
1730951597 -2.916532884933e-01 -1.105809194901e+00 -6.416567641686e+01 1.816189226435e+00 1.536300750789e+00 1.732854176179e-01 5.595621367413e-01 2.073587071788e+00 5.518308706538e+01 -2.736946382751e-04 -7.082895206281e-04 5.025375932683e-03 -1.505372856687e-01 2.386728029853e-02 9.959117590498e-01 9.998179203217e-03 1.000060432231e-02 3.484175569524e-01 4.964453096754e-03 -1.331232205973e+05 -2.162303600896e-01 0.000000000000e+00 
1730951598 -1.088876804180e-01 -1.412672730533e+00 -7.067676593216e+01 2.224631612414e+00 1.425784389706e+00 1.746272765881e-01 5.595621902640e-01 2.073587420688e+00 5.518722626278e+01 -2.808664986686e-04 -7.035378745435e-04 5.062417593904e-03 -1.730743629516e-01 2.576554987992e-02 9.966590559701e-01 9.997561877293e-03 1.000069118994e-02 3.491176459392e-01 4.967159458489e-03 -1.331235793765e+05 -2.339353195795e-01 0.000000000000e+00 
1730951598 -7.129652913146e-01 -1.540575667084e+00 -7.887227522704e+01 2.092981854744e+00 9.998624654211e-01 1.674400351129e-01 5.595622566515e-01 2.073587853948e+00 5.526062849540e+01 -2.827068835175e-04 -7.019689835688e-04 5.101168875771e-03 -1.895332989028e-01 2.445430135805e-02 9.972556912687e-01 9.996878242203e-03 1.000024696080e-02 3.492617790022e-01 4.969676625390e-03 -1.331238471263e+05 -2.380097798947e-01 0.000000000000e+00 
1730951598 -1.089445886100e-01 -1.718904805117e+00 -8.461732401704e+01 1.265244912004e+00 6.593880117066e-01 1.764512093827e-01 5.595622938949e-01 2.073588185023e+00 5.520137901454e+01 -2.818014152417e-04 -7.020048792374e-04 5.128527249441e-03 -2.012280796097e-01 2.085611890875e-02 9.978646830518e-01 9.996347486790e-03 9.999997198895e-03 3.492071755683e-01 4.971666957040e-03 -1.331240326411e+05 -2.124015168475e-01 0.000000000000e+00 
1730951598 4.497064788789e-01 -1.596909207563e+00 -8.714987732473e+01 7.341185064961e-01 5.095159702159e-01 1.904081364165e-01 5.595623141892e-01 2.073588413329e+00 5.513541018715e+01 -2.798871533662e-04 -7.023673460388e-04 5.152057848181e-03 -2.098439641583e-01 1.616235760748e-02 9.984252597364e-01 9.995954723643e-03 9.999788819903e-03 3.490195239959e-01 4.973029771819e-03 -1.331244932810e+05 -2.332973000913e-01 0.000000000000e+00 
1730951598 7.825626450465e-01 -1.583574869540e+00 -8.926527979754e+01 3.506436261881e-01 4.781882790224e-01 1.987352890933e-01 5.595622877964e-01 2.073588682546e+00 5.527619334459e+01 -2.792184893470e-04 -7.039750870845e-04 5.233109896930e-03 -2.167608661331e-01 4.481613973336e-03 9.989133615010e-01 9.995871829631e-03 9.999991866150e-03 3.494763284506e-01 4.971976235504e-03 -1.331246720104e+05 -2.286945679006e-01 0.000000000000e+00 
1730951599 9.323513202800e-01 -1.304184736103e+00 -9.081506191170e+01 -3.927763905959e-03 4.056463659039e-01 2.066562727247e-01 5.595622706860e-01 2.073588888155e+00 5.531587169604e+01 -2.783118562238e-04 -7.047139592663e-04 5.291930677199e-03 -2.213594564414e-01 -6.784864520555e-03 9.994157356175e-01 9.995889610329e-03 1.000023615706e-02 3.498252106667e-01 4.970399481892e-03 -1.331252140557e+05 -2.710076092991e-01 0.000000000000e+00 
1730951599 7.462203615504e-01 -1.142997357029e+00 -9.192843329836e+01 -2.123402151684e-01 3.767374298710e-01 1.653101241140e-01 5.595622673183e-01 2.073589052545e+00 5.529836450964e+01 -2.775424571385e-04 -7.046339785937e-04 5.332286786230e-03 -2.236617337805e-01 -1.808730956810e-02 9.998679408679e-01 9.995991581123e-03 1.000048506769e-02 3.503752501960e-01 4.967929981968e-03 -1.331255958408e+05 -2.725979850860e-01 0.000000000000e+00 
1730951599 7.579626728002e-01 -1.124295714567e+00 -9.314705738349e+01 1.011502014964e-01 3.394688312088e-01 1.617401372852e-01 5.595622719177e-01 2.073589232825e+00 5.525025265341e+01 -2.768144767224e-04 -7.037306267629e-04 5.358093042631e-03 -2.246486870252e-01 -2.867472089644e-02 1.000271773934e+00 9.996157209241e-03 1.000079791497e-02 3.509474320806e-01 4.965174568493e-03 -1.331261354106e+05 -2.964723497653e-01 0.000000000000e+00 
1730951599 9.406113070486e-01 -1.045623758334e+00 -9.451990557737e+01 3.999615824493e-01 2.642340825947e-01 1.310418155196e-01 5.595622404164e-01 2.073589467463e+00 5.521526361451e+01 -2.760996339249e-04 -7.022059106652e-04 5.382648554083e-03 -2.261643739500e-01 -3.854885252862e-02 1.000634662804e+00 9.996211415339e-03 1.000124434725e-02 3.516409902410e-01 4.962362553960e-03 -1.331268836362e+05 -3.544232805829e-01 0.000000000000e+00 
1730951599 1.566071514071e+00 -9.691990755532e-01 -9.632561727948e+01 9.703796833836e-01 1.338546537603e-01 1.326679748063e-01 5.595622105120e-01 2.073589789520e+00 5.521187118344e+01 -2.759189540410e-04 -7.000993044631e-04 5.398288815953e-03 -2.262983767409e-01 -4.764536458023e-02 1.000896737987e+00 9.996273488759e-03 1.000181137192e-02 3.524575593770e-01 4.959151895996e-03 -1.331274090897e+05 -3.704974557600e-01 0.000000000000e+00 
1730951600 1.301298202749e+00 -4.231910311470e-01 -9.859883765297e+01 1.742765540731e+00 -9.144246348712e-03 1.459105802250e-01 5.595621570323e-01 2.073590237468e+00 5.518343139262e+01 -2.755995624499e-04 -6.975031641255e-04 5.402450204649e-03 -2.261132646857e-01 -5.641728262860e-02 1.001168881085e+00 9.996306722714e-03 1.000237783914e-02 3.532651702540e-01 4.955859998611e-03 -1.331280811422e+05 -4.023254621723e-01 0.000000000000e+00 
1730951600 1.504443755789e+00 -6.852752309908e-01 -1.009354540551e+02 2.541688710760e+00 -2.795389491157e-01 9.927477045738e-02 5.595620580628e-01 2.073590801101e+00 5.516926253893e+01 -2.746274519741e-04 -6.950035920113e-04 5.409518496533e-03 -2.267111614694e-01 -6.362095575284e-02 1.001365538926e+00 9.996185426404e-03 1.000290070501e-02 3.540790584407e-01 4.953217327172e-03 -1.331291673209e+05 -5.036625751296e-01 0.000000000000e+00 
1730951600 9.746303751384e-01 -1.032600512406e+00 -1.036135037050e+02 3.192404784331e+00 -5.831664870881e-01 7.789956104977e-02 5.595619550474e-01 2.073591511738e+00 5.518960749770e+01 -2.755346394073e-04 -6.923379539096e-04 5.373547198849e-03 -2.250993476795e-01 -7.008505222125e-02 1.001469832663e+00 9.996160842458e-03 1.000355923431e-02 3.550723482337e-01 4.949950812446e-03 -1.331299321280e+05 -5.357920748399e-01 0.000000000000e+00 
1730951600 1.204011641086e+00 -9.768114369382e-01 -1.054886881060e+02 3.918559087442e+00 -8.829448117660e-01 6.775224600840e-02 5.595617835668e-01 2.073592376583e+00 5.534335643519e+01 -2.763893966367e-04 -6.892325187836e-04 5.322947531769e-03 -2.235978160476e-01 -7.692596000224e-02 1.001463265091e+00 9.996105732156e-03 1.000415761943e-02 3.564634944007e-01 4.946307081569e-03 -1.331303054683e+05 -5.143533193986e-01 0.000000000000e+00 
1730951600 1.368904683288e+00 -1.718801429468e+00 -1.059280480607e+02 4.477736433529e+00 -1.035769644346e+00 1.104529644615e-01 5.595616124732e-01 2.073593252538e+00 5.536585484133e+01 -2.768766907799e-04 -6.882479718379e-04 5.243242464718e-03 -2.228219550935e-01 -8.018458146739e-02 1.001513048320e+00 9.996012641855e-03 1.000436795658e-02 3.570451822197e-01 4.944685449304e-03 -1.331309615506e+05 -5.294081155836e-01 0.000000000000e+00 
1730951601 1.588680846845e+00 -1.927278612277e+00 -1.056650062214e+02 4.987690759096e+00 -1.143428829711e+00 1.142795445562e-01 5.595614145056e-01 2.073594231186e+00 5.530024676196e+01 -2.769699127816e-04 -6.872607340821e-04 5.157089984943e-03 -2.223047205050e-01 -8.342635450298e-02 1.001628600010e+00 9.995990902267e-03 1.000457882729e-02 3.575059618868e-01 4.943152461080e-03 -1.331318660912e+05 -5.710929762681e-01 0.000000000000e+00 
1730951601 1.236850772898e+00 -2.004756543274e+00 -1.059194478811e+02 5.266907572128e+00 -1.228597764372e+00 1.063054290713e-01 5.595612226733e-01 2.073595328055e+00 5.522675377606e+01 -2.791384575503e-04 -6.865459170209e-04 4.989883048604e-03 -2.205418881201e-01 -8.665838660307e-02 1.001709663749e+00 9.995853616678e-03 1.000509082683e-02 3.581459033843e-01 4.940769787451e-03 -1.331328935424e+05 -6.255701080421e-01 0.000000000000e+00 
1730951601 1.387792843724e+00 -1.718208232207e+00 -1.064791655068e+02 5.082018043344e+00 -1.255068918579e+00 9.198207354150e-02 5.595610041538e-01 2.073596445420e+00 5.518288425510e+01 -2.807126900748e-04 -6.847901327154e-04 4.832633293711e-03 -2.188066448950e-01 -9.080815102139e-02 1.001770457672e+00 9.995831169892e-03 1.000561551733e-02 3.590094290516e-01 4.937897399022e-03 -1.331339321618e+05 -6.766999844832e-01 0.000000000000e+00 
1730951601 3.000547712479e+00 -1.339798250542e+00 -1.065046826553e+02 4.954040381070e+00 -1.232510518960e+00 1.750056645549e-01 5.595608160598e-01 2.073597570345e+00 5.515919707148e+01 -2.847137865724e-04 -6.834046617108e-04 4.590269031299e-03 -2.158299318368e-01 -9.457274932200e-02 1.001766741759e+00 9.995876268942e-03 1.000586017805e-02 3.602629850988e-01 4.933749967037e-03 -1.331347358334e+05 -6.811730875371e-01 0.000000000000e+00 
1730951601 3.591830255883e+00 -1.190300825728e+00 -1.056840934222e+02 4.608075120202e+00 -1.033992457940e+00 2.657390111892e-01 5.595606914487e-01 2.073598612849e+00 5.539606923835e+01 -2.906420484802e-04 -6.837618804440e-04 4.285612589825e-03 -2.124516997425e-01 -9.652692098565e-02 1.001702508916e+00 9.996101221071e-03 1.000552484917e-02 3.614737947741e-01 4.929118101061e-03 -1.331354121890e+05 -6.722346536332e-01 0.000000000000e+00 
1730951602 4.428637271674e+00 -6.101159238949e-01 -1.054747396964e+02 4.446645356319e+00 -9.749767064471e-01 3.322076003659e-01 5.595605445391e-01 2.073599660759e+00 5.566764387462e+01 -2.941760956325e-04 -6.819619565424e-04 4.031116550990e-03 -2.095164949240e-01 -1.002331465910e-01 1.001664842923e+00 9.996349545341e-03 1.000546446156e-02 3.628525926485e-01 4.924347138082e-03 -1.331360260614e+05 -6.557773538042e-01 0.000000000000e+00 
1730951602 4.569032438526e+00 -6.530473543677e-01 -1.054013271941e+02 4.144128287993e+00 -8.763077876352e-01 2.675075152940e-01 5.595604095239e-01 2.073600665605e+00 5.607177656475e+01 -2.974278813385e-04 -6.800533224250e-04 3.781075338003e-03 -2.066690257755e-01 -1.037403748148e-01 1.001551059461e+00 9.996545554810e-03 1.000541480357e-02 3.643920329564e-01 4.920092822479e-03 -1.331363952913e+05 -6.134347540930e-01 0.000000000000e+00 
1730951602 4.699013639394e+00 -4.451607105469e-01 -1.053302886258e+02 3.892083131311e+00 -8.751354185301e-01 2.603732083656e-01 5.595602731221e-01 2.073601663104e+00 5.642034404016e+01 -2.999291084242e-04 -6.762443492181e-04 3.553085303240e-03 -2.035174558969e-01 -1.081307689560e-01 1.001453559813e+00 9.996659151942e-03 1.000573607102e-02 3.659890841907e-01 4.915364898175e-03 -1.331367489483e+05 -5.730337893021e-01 0.000000000000e+00 
1730951602 4.734891371148e+00 -6.546301711564e-01 -1.048477578570e+02 3.821266230260e+00 -8.192322862529e-01 2.553977840435e-01 5.595601270457e-01 2.073602610230e+00 5.692049247336e+01 -3.009153873513e-04 -6.724317717061e-04 3.369422130677e-03 -2.010578245713e-01 -1.122345510068e-01 1.001282493791e+00 9.996639526154e-03 1.000600136016e-02 3.675601725084e-01 4.911506279911e-03 -1.331369803916e+05 -5.372119129764e-01 0.000000000000e+00 
1730951602 4.603993999099e+00 -4.138175766787e-01 -1.045391021125e+02 3.814068833201e+00 -8.050432477256e-01 2.390275436027e-01 5.595599942649e-01 2.073603559677e+00 5.735207295203e+01 -3.018828873649e-04 -6.683276573917e-04 3.183889985407e-03 -1.984812411619e-01 -1.161582083438e-01 1.001139464084e+00 9.996681335288e-03 1.000651897903e-02 3.689212514069e-01 4.907809931507e-03 -1.331373377006e+05 -5.213222939919e-01 0.000000000000e+00 
1730951603 4.604028008678e+00 -9.220440690688e-01 -1.038680490224e+02 3.899123210935e+00 -7.422048100453e-01 2.196394462052e-01 5.595598742145e-01 2.073604512219e+00 5.779712318454e+01 -3.026522817225e-04 -6.643801138160e-04 2.991108945198e-03 -1.959711502043e-01 -1.198215740396e-01 1.000974770743e+00 9.996439078003e-03 1.000715137977e-02 3.702063362744e-01 4.904556929234e-03 -1.331379496166e+05 -5.528951366714e-01 0.000000000000e+00 
1730951603 4.598841316137e+00 -1.079729883774e+00 -1.035676472863e+02 4.003311208304e+00 -7.738755833210e-01 2.282606641912e-01 5.595597625423e-01 2.073605470030e+00 5.818377766180e+01 -3.031593597183e-04 -6.603256858426e-04 2.813907279828e-03 -1.935837077583e-01 -1.231399924132e-01 1.000852008614e+00 9.996127968016e-03 1.000792822441e-02 3.712224903639e-01 4.901481499101e-03 -1.331385557008e+05 -5.706988957253e-01 0.000000000000e+00 
1730951603 4.307930648170e+00 -6.256312974192e-01 -1.033891704463e+02 4.258842077822e+00 -8.230915296136e-01 1.305105567001e-01 5.595596376783e-01 2.073606462318e+00 5.856009496940e+01 -3.027562739970e-04 -6.559741688413e-04 2.648880963983e-03 -1.914249330285e-01 -1.265175377335e-01 1.000698766819e+00 9.996129800788e-03 1.000899410314e-02 3.720602262190e-01 4.899503898504e-03 -1.331394480690e+05 -6.355095835378e-01 0.000000000000e+00 
1730951603 5.101009974241e+00 -9.944582957769e-01 -1.032373281312e+02 4.600703741305e+00 -8.962128398187e-01 2.305114973232e-01 5.595595012578e-01 2.073607523743e+00 5.893698115643e+01 -3.015259463887e-04 -6.513227556169e-04 2.488972958940e-03 -1.894240725495e-01 -1.299649804756e-01 1.000552054465e+00 9.995882572954e-03 1.000960954874e-02 3.730469601676e-01 4.896699506663e-03 -1.331402998768e+05 -6.835346781342e-01 0.000000000000e+00 
1730951603 4.618383661864e+00 2.088808833521e-01 -1.025702446212e+02 4.803667564415e+00 -8.840492597830e-01 2.189008913486e-01 5.595593717965e-01 2.073608617073e+00 5.935296842686e+01 -3.005857114254e-04 -6.469300693682e-04 2.319414365081e-03 -1.874219678903e-01 -1.329798075912e-01 1.000428363814e+00 9.996372161705e-03 1.001073703891e-02 3.735816130726e-01 4.894279894976e-03 -1.331410619932e+05 -7.041683882302e-01 0.000000000000e+00 
1730951604 4.437826108981e+00 -2.488147041496e-01 -1.025737149069e+02 5.202261378827e+00 -9.460019174293e-01 1.706297782692e-01 5.595592330519e-01 2.073609735726e+00 5.976731911310e+01 -2.989134880513e-04 -6.435447732038e-04 2.169551256773e-03 -1.860050199084e-01 -1.355504717554e-01 1.000271559237e+00 9.996451107729e-03 1.001183743489e-02 3.739250032766e-01 4.893108063507e-03 -1.331424538369e+05 -8.322285000338e-01 0.000000000000e+00 
1730951604 3.828617500339e+00 -2.364514008437e-01 -1.034031388855e+02 5.696231452905e+00 -1.224984571954e+00 1.228382786465e-01 5.595590375053e-01 2.073610939329e+00 6.014919479607e+01 -2.950376460250e-04 -6.396181796579e-04 2.069101084081e-03 -1.851872523193e-01 -1.384511159990e-01 1.000128732569e+00 9.996528738008e-03 1.001274881560e-02 3.741398736088e-01 4.892409523643e-03 -1.331437584394e+05 -9.272397419948e-01 0.000000000000e+00 
1730951604 3.643080471132e+00 -6.399102499275e-01 -1.036716836580e+02 6.281005975240e+00 -1.384803355325e+00 9.463273765864e-02 5.595588256148e-01 2.073612225690e+00 6.042164680193e+01 -2.918026112020e-04 -6.364237872677e-04 1.957832649651e-03 -1.844166537971e-01 -1.408034511478e-01 1.000015978234e+00 9.996429158761e-03 1.001377880457e-02 3.741255810049e-01 4.891970102773e-03 -1.331451983260e+05 -1.019872400555e+00 0.000000000000e+00 
1730951604 2.724164654077e+00 -9.211648235270e-01 -1.043070013310e+02 6.710878441417e+00 -1.593937769667e+00 5.242828132655e-02 5.595585584995e-01 2.073613620350e+00 6.059601502115e+01 -2.864037841772e-04 -6.330782443172e-04 1.870688761077e-03 -1.841281128486e-01 -1.434940702289e-01 9.999711779142e-01 9.996524639799e-03 1.001444513863e-02 3.739338433491e-01 4.891891182864e-03 -1.331466766491e+05 -1.095841672687e+00 0.000000000000e+00 
1730951604 2.263754524905e+00 9.570722434756e-03 -1.046653629816e+02 7.053989853883e+00 -1.744028435894e+00 -6.404269282649e-03 5.595582910820e-01 2.073615060502e+00 6.073847061119e+01 -2.827165130063e-04 -6.301379270970e-04 1.760171480923e-03 -1.836060956641e-01 -1.455296280298e-01 9.998707854595e-01 9.996750028550e-03 1.001561984994e-02 3.736416164718e-01 4.892049014222e-03 -1.331478494311e+05 -1.117919992571e+00 0.000000000000e+00 
1730951605 1.270351440978e+00 2.410917485110e-01 -1.044580959326e+02 7.232912191811e+00 -1.772696131873e+00 -5.203382567763e-02 5.595580145717e-01 2.073616532099e+00 6.076341795874e+01 -2.789935948414e-04 -6.276714318688e-04 1.654483381048e-03 -1.832476208520e-01 -1.472909657514e-01 9.998387775941e-01 9.996974523629e-03 1.001678616070e-02 3.731476929784e-01 4.892432352882e-03 -1.331491506162e+05 -1.146291246033e+00 0.000000000000e+00 
1730951605 1.183933727582e+00 -5.991424593548e-01 -1.040067626137e+02 7.043478138312e+00 -1.680339081028e+00 -1.316077938531e-01 5.595577730594e-01 2.073618018360e+00 6.081923112056e+01 -2.760439729182e-04 -6.245168533128e-04 1.508792541048e-03 -1.825791437332e-01 -1.489783832263e-01 9.997308922729e-01 9.996770453714e-03 1.001867883851e-02 3.725467273036e-01 4.893290801509e-03 -1.331502012438e+05 -1.141490873341e+00 0.000000000000e+00 
1730951605 1.087954891016e+00 -1.076746978969e+00 -1.029330042896e+02 6.876466999147e+00 -1.512434300441e+00 -1.482055783191e-01 5.595575433692e-01 2.073619441608e+00 6.105495335289e+01 -2.727346340648e-04 -6.216078179478e-04 1.392993001009e-03 -1.822032049065e-01 -1.505092005112e-01 9.995380071391e-01 9.996492228192e-03 1.002010693687e-02 3.722186083783e-01 4.894222731960e-03 -1.331510318515e+05 -1.124520404802e+00 0.000000000000e+00 
1730951605 6.075782199311e-01 -1.457113323532e+00 -1.014206334806e+02 7.187872836420e+00 -1.434236228789e+00 -2.007029702462e-01 5.595573026800e-01 2.073620868751e+00 6.115158313583e+01 -2.679996769477e-04 -6.188963024861e-04 1.331841285960e-03 -1.823054163914e-01 -1.520618581875e-01 9.994134916907e-01 9.996532066248e-03 1.002067892587e-02 3.718814819719e-01 4.895056986510e-03 -1.331520083090e+05 -1.122521155413e+00 0.000000000000e+00 
1730951606 7.292512065778e-01 -1.418601824792e+00 -9.828683617925e+01 7.511143471415e+00 -1.096949957789e+00 -1.994643556874e-01 5.595570887969e-01 2.073622315350e+00 6.120777920304e+01 -2.640032507469e-04 -6.169106458311e-04 1.308614789484e-03 -1.825623408674e-01 -1.531977824963e-01 9.992732906403e-01 9.996721533411e-03 1.002083281526e-02 3.716972589069e-01 4.895692864241e-03 -1.331530918520e+05 -1.141860245341e+00 0.000000000000e+00 
1730951606 9.506201846638e-01 -1.177798835372e+00 -9.503644569821e+01 7.765146582581e+00 -6.669368948814e-01 -1.441630651126e-01 5.595569132565e-01 2.073623787570e+00 6.136542357669e+01 -2.600227674692e-04 -6.160436616461e-04 1.319201693737e-03 -1.830599012101e-01 -1.540468278996e-01 9.991025879313e-01 9.997077695523e-03 1.002076892846e-02 3.716642465705e-01 4.896798675950e-03 -1.331539389215e+05 -1.129459350912e+00 0.000000000000e+00 
1730951606 1.363733771990e+00 -6.404388161276e-01 -9.277975764268e+01 7.940208750749e+00 -4.522797224775e-01 -7.754680861135e-02 5.595567592755e-01 2.073625295729e+00 6.154437976945e+01 -2.550264147311e-04 -6.148204198290e-04 1.375512125813e-03 -1.837908535512e-01 -1.550249968350e-01 9.989507645805e-01 9.997473859729e-03 1.002056069485e-02 3.716138132932e-01 4.898522505379e-03 -1.331550799241e+05 -1.166193224141e+00 0.000000000000e+00 
1730951606 2.143581920341e+00 -1.271100784782e+00 -9.109552709851e+01 8.111414450863e+00 -2.300871687769e-01 -5.119380819632e-02 5.595566663762e-01 2.073626851139e+00 6.179547622269e+01 -2.502295744654e-04 -6.125236717467e-04 1.404828937172e-03 -1.843368230145e-01 -1.561141354524e-01 9.987839988526e-01 9.997832675449e-03 1.002066094030e-02 3.713700802316e-01 4.899847189002e-03 -1.331561528817e+05 -1.184777886634e+00 0.000000000000e+00 
1730951606 1.431015781325e+00 -2.138715265843e+00 -8.984866114534e+01 7.819032614054e+00 -1.183440097111e-01 1.130810320515e-02 5.595566230173e-01 2.073628379889e+00 6.210826294810e+01 -2.470133265889e-04 -6.094427583592e-04 1.433707263337e-03 -1.846232730177e-01 -1.570490292906e-01 9.986629251905e-01 9.997873033259e-03 1.002075828845e-02 3.712331720789e-01 4.900209756520e-03 -1.331575328115e+05 -1.245352000125e+00 0.000000000000e+00 
1730951607 1.708443835519e+00 -1.724068507041e+00 -8.865205320753e+01 7.400549090866e+00 -5.884788015779e-02 1.946454146768e-03 5.595566093573e-01 2.073629858955e+00 6.242830497628e+01 -2.431813438711e-04 -6.037284177659e-04 1.458966191191e-03 -1.848421911040e-01 -1.584401088044e-01 9.985331748724e-01 9.997870794045e-03 1.002073662219e-02 3.709840740646e-01 4.899928774444e-03 -1.331586086605e+05 -1.247928536477e+00 0.000000000000e+00 
1730951607 2.795862180872e+00 -1.750438638260e+00 -8.736293078935e+01 7.291201202524e+00 5.587749136256e-02 6.765404758038e-02 5.595566211988e-01 2.073631268733e+00 6.265650477542e+01 -2.397618709455e-04 -5.974008945166e-04 1.490935081617e-03 -1.850173361284e-01 -1.598321392711e-01 9.984325914413e-01 9.997868636213e-03 1.002039640169e-02 3.707394631881e-01 4.899149809675e-03 -1.331598485679e+05 -1.265698732912e+00 0.000000000000e+00 
1730951607 2.379907780241e+00 -8.352600601696e-01 -8.571479142987e+01 7.243297600539e+00 2.285292525207e-01 7.996006894518e-02 5.595566737157e-01 2.073632679679e+00 6.288856511309e+01 -2.368616017633e-04 -5.899005279173e-04 1.517774411614e-03 -1.850933755008e-01 -1.613112769182e-01 9.983723003420e-01 9.998064175211e-03 1.002004189745e-02 3.704221034497e-01 4.897605202206e-03 -1.331610489538e+05 -1.266050785335e+00 0.000000000000e+00 
1730951607 3.189531776770e+00 -1.742892190776e-01 -8.373049746182e+01 7.403185353398e+00 4.432494638698e-01 1.808715635749e-01 5.595567649304e-01 2.073634091131e+00 6.304349457827e+01 -2.346703626843e-04 -5.815759623089e-04 1.550761545011e-03 -1.850821930505e-01 -1.628231655748e-01 9.983308046939e-01 9.998382795597e-03 1.001934293110e-02 3.702386887810e-01 4.895154254278e-03 -1.331621774806e+05 -1.248602523299e+00 0.000000000000e+00 
1730951607 2.685800865340e+00 -1.300144452301e+00 -8.006968392114e+01 7.419671802458e+00 9.058063762875e-01 1.053639499935e-01 5.595569345269e-01 2.073635503667e+00 6.333765110050e+01 -2.332755765400e-04 -5.721572516164e-04 1.577904279426e-03 -1.849526516306e-01 -1.644241167598e-01 9.982577026781e-01 9.998285755909e-03 1.001862585674e-02 3.701741293572e-01 4.892148705820e-03 -1.331627861688e+05 -1.156298190241e+00 0.000000000000e+00 
1730951608 3.149536170625e+00 -1.106050200637e+00 -7.745600048919e+01 7.511200081201e+00 1.173095507656e+00 3.797244903217e-02 5.595571639426e-01 2.073636874098e+00 6.356741531436e+01 -2.355375686485e-04 -5.635487167262e-04 1.617627127782e-03 -1.843559764828e-01 -1.655932499996e-01 9.981617863627e-01 9.997893074479e-03 1.001784031150e-02 3.706146904301e-01 4.888577413093e-03 -1.331637144742e+05 -1.127708346377e+00 0.000000000000e+00 
1730951608 2.968683114315e+00 -8.017699896233e-01 -7.581603561187e+01 7.651166430757e+00 1.449361030474e+00 3.003925386925e-02 5.595574296374e-01 2.073638242355e+00 6.384166982054e+01 -2.389351585954e-04 -5.564703328248e-04 1.658187765429e-03 -1.836583915945e-01 -1.664656581201e-01 9.980398420386e-01 9.997540143640e-03 1.001732006948e-02 3.711928522861e-01 4.885105249695e-03 -1.331647580153e+05 -1.129636737189e+00 0.000000000000e+00 
1730951608 1.976365443536e+00 -2.654038240422e-01 -7.565163162612e+01 7.916713323591e+00 1.453290781269e+00 1.601380739051e-02 5.595577254758e-01 2.073639623698e+00 6.400037344813e+01 -2.442888802143e-04 -5.492004676949e-04 1.702877481830e-03 -1.826730876358e-01 -1.672583197887e-01 9.979509886098e-01 9.997169307525e-03 1.001710575867e-02 3.720019817825e-01 4.880762362947e-03 -1.331659126947e+05 -1.144353509983e+00 0.000000000000e+00 
1730951608 2.359583745142e+00 2.821918964129e-01 -7.645903671449e+01 7.495917177659e+00 1.224639138757e+00 -5.608166448411e-02 5.595580088450e-01 2.073640977898e+00 6.413076968456e+01 -2.503146404609e-04 -5.421867639459e-04 1.744606385757e-03 -1.815984551050e-01 -1.680090541232e-01 9.978342984546e-01 9.996915057443e-03 1.001666816473e-02 3.729426267537e-01 4.876590687228e-03 -1.331673753700e+05 -1.210373387157e+00 0.000000000000e+00 
1730951608 2.671208456538e+00 4.816681264524e-01 -7.760241676556e+01 7.216767182995e+00 1.038388372936e+00 9.417958608657e-03 5.595582720203e-01 2.073642250851e+00 6.420258896383e+01 -2.565092377398e-04 -5.346853934167e-04 1.773992497138e-03 -1.805013957627e-01 -1.688634220263e-01 9.977480557951e-01 9.996699202445e-03 1.001598376939e-02 3.739351147758e-01 4.871524125124e-03 -1.331687688756e+05 -1.247882401394e+00 0.000000000000e+00 
1730951609 2.837151507409e+00 3.132793755422e-01 -7.870955289370e+01 6.835159926144e+00 8.144427265475e-01 -3.698980786534e-02 5.595585206071e-01 2.073643468210e+00 6.426960636805e+01 -2.631153050105e-04 -5.265740718824e-04 1.797442206180e-03 -1.793421533932e-01 -1.698357887990e-01 9.976592205978e-01 9.996270053224e-03 1.001515528108e-02 3.749910392160e-01 4.866491807982e-03 -1.331701282016e+05 -1.272812330437e+00 0.000000000000e+00 
1730951609 3.292113001638e+00 -8.045677300211e-03 -7.931193606583e+01 6.822811052154e+00 7.489084936263e-01 -7.676405358722e-03 5.595587189692e-01 2.073644629704e+00 6.429569030723e+01 -2.703739161626e-04 -5.207086384675e-04 1.826192766797e-03 -1.780860872801e-01 -1.704527182452e-01 9.975778530807e-01 9.995388795894e-03 1.001441574761e-02 3.762079673118e-01 4.861314512687e-03 -1.331716512792e+05 -1.315957190374e+00 0.000000000000e+00 
1730951609 3.142473938337e+00 2.676402977151e-01 -8.012289190217e+01 6.789093128612e+00 6.541469158548e-01 1.671047153325e-02 5.595589103397e-01 2.073645793871e+00 6.435436939427e+01 -2.770395686764e-04 -5.142652010972e-04 1.852393456039e-03 -1.769260466479e-01 -1.712315283157e-01 9.975110456447e-01 9.994691961733e-03 1.001377321988e-02 3.773145406972e-01 4.856136461538e-03 -1.331730538567e+05 -1.331493157942e+00 0.000000000000e+00 
1730951609 3.228749530349e+00 7.336227857292e-01 -8.135339223090e+01 6.758158491455e+00 5.050733933429e-01 -4.345840533927e-02 5.595590899180e-01 2.073646917906e+00 6.435467503108e+01 -2.855020346046e-04 -5.085899022627e-04 1.871926463854e-03 -1.754572438134e-01 -1.718516268501e-01 9.974315105695e-01 9.993945991999e-03 1.001310150176e-02 3.787215835696e-01 4.850506600655e-03 -1.331743167684e+05 -1.320524371405e+00 0.000000000000e+00 
1730951609 2.993520850738e+00 1.107763250656e+00 -8.348613767527e+01 6.512125025953e+00 2.838569466279e-01 -5.598727976957e-02 5.595592404431e-01 2.073648035106e+00 6.431713476108e+01 -2.932742976095e-04 -5.034154096491e-04 1.886434430875e-03 -1.741025752016e-01 -1.724527046549e-01 9.973687440267e-01 9.993334524763e-03 1.001260681615e-02 3.799842884727e-01 4.845320932076e-03 -1.331756774236e+05 -1.324803346610e+00 0.000000000000e+00 
1730951610 3.077052913016e+00 2.037200226716e+00 -8.629368684910e+01 6.372348384498e+00 1.816030128900e-02 -9.536063615816e-02 5.595593607680e-01 2.073649104343e+00 6.433366853351e+01 -3.009261946784e-04 -4.979646672230e-04 1.891035241058e-03 -1.727737144429e-01 -1.731497063678e-01 9.972698010861e-01 9.993205288862e-03 1.001201621338e-02 3.813039573349e-01 4.840336355056e-03 -1.331765181757e+05 -1.253562513144e+00 0.000000000000e+00 
1730951610 3.194450833784e+00 1.161974868681e+00 -8.740533865504e+01 6.400118581360e+00 -8.221679632963e-02 -8.935316104217e-02 5.595594446406e-01 2.073650139560e+00 6.420947193578e+01 -3.093502435310e-04 -4.936752210202e-04 1.895340306664e-03 -1.712808898907e-01 -1.736564089784e-01 9.972059767406e-01 9.992363006944e-03 1.001145557837e-02 3.826856107366e-01 4.834925848803e-03 -1.331775808054e+05 -1.218407829388e+00 0.000000000000e+00 
1730951610 3.141761308947e+00 6.860451956318e-01 -8.872291417389e+01 5.898502863056e+00 -1.723047383637e-01 -1.170071031616e-01 5.595595228089e-01 2.073651118586e+00 6.421219500610e+01 -3.188825913522e-04 -4.899405744843e-04 1.890377180081e-03 -1.695740469224e-01 -1.740874222842e-01 9.970940761560e-01 9.991272646354e-03 1.001086007854e-02 3.842613474529e-01 4.829099634311e-03 -1.331783138262e+05 -1.150219800857e+00 0.000000000000e+00 
1730951610 2.767270599155e+00 5.031076652094e-01 -9.080286885979e+01 5.541205169072e+00 -3.482301503502e-01 -9.128484923410e-02 5.595595740060e-01 2.073652037016e+00 6.421122867419e+01 -3.270411010017e-04 -4.862806219680e-04 1.886787845664e-03 -1.681054362817e-01 -1.745677424480e-01 9.969970592880e-01 9.990190299037e-03 1.001046222698e-02 3.855868025192e-01 4.823869503397e-03 -1.331787454346e+05 -1.044622614196e+00 0.000000000000e+00 
1730951610 2.784204872531e+00 3.971032206759e-01 -9.226945101162e+01 5.666575068344e+00 -4.492137705488e-01 -1.903272668735e-01 5.595596044483e-01 2.073652893516e+00 6.411768231786e+01 -3.360117338159e-04 -4.832149357887e-04 1.879668387469e-03 -1.664614715128e-01 -1.749612761193e-01 9.968977741896e-01 9.988922492169e-03 1.001008025979e-02 3.870014437052e-01 4.818535180128e-03 -1.331791865676e+05 -9.535495271213e-01 0.000000000000e+00 
1730951611 3.166890984735e+00 8.800043592209e-01 -9.362093050874e+01 5.989853114012e+00 -6.031381684918e-01 -1.838315070975e-01 5.595596221647e-01 2.073653782897e+00 6.414412339574e+01 -3.460036071371e-04 -4.802701488467e-04 1.872563193549e-03 -1.646017985608e-01 -1.753545626071e-01 9.967478486223e-01 9.987710018690e-03 1.000953525251e-02 3.886496541997e-01 4.812682838743e-03 -1.331795968602e+05 -8.871753372026e-01 0.000000000000e+00 
1730951611 2.973222931707e+00 6.460219385034e-01 -9.444141919711e+01 6.107722373524e+00 -6.527354107285e-01 -1.803148841434e-01 5.595595767791e-01 2.073654722010e+00 6.429052958049e+01 -3.549146404859e-04 -4.795721461494e-04 1.875073559375e-03 -1.628706762237e-01 -1.753790770730e-01 9.965688460026e-01 9.986789808142e-03 1.000918377462e-02 3.901387012086e-01 4.807486198629e-03 -1.331799234638e+05 -8.281117927199e-01 0.000000000000e+00 
1730951611 3.275635853377e+00 7.644968364030e-02 -9.567359575535e+01 6.416292854915e+00 -7.491772164046e-01 -6.512157311157e-02 5.595595256917e-01 2.073655705530e+00 6.446794784511e+01 -3.636346487097e-04 -4.787575210442e-04 1.870462584631e-03 -1.611751150307e-01 -1.754633446343e-01 9.963993425291e-01 9.985706812986e-03 1.000875516101e-02 3.916074241373e-01 4.802029310331e-03 -1.331804843784e+05 -8.187018593095e-01 0.000000000000e+00 
1730951611 3.436438913245e+00 2.021291813488e-01 -9.580859181405e+01 6.794223204902e+00 -8.643474668496e-01 -1.306996624332e-01 5.595594851770e-01 2.073656755714e+00 6.480267651855e+01 -3.719557770863e-04 -4.763912174431e-04 1.864429432104e-03 -1.595867441981e-01 -1.758667135965e-01 9.961812051457e-01 9.984403954845e-03 1.000820981873e-02 3.929288184504e-01 4.796582776488e-03 -1.331807017450e+05 -7.696228183746e-01 0.000000000000e+00 
1730951611 3.178040107436e+00 2.898291558478e-01 -9.559308640757e+01 6.851737934393e+00 -7.387993859584e-01 -5.866851569068e-02 5.595594425494e-01 2.073657812578e+00 6.525943908792e+01 -3.815426604279e-04 -4.751331945973e-04 1.851186256247e-03 -1.577194082475e-01 -1.761017594643e-01 9.959431934422e-01 9.983124139977e-03 1.000772432759e-02 3.944964938019e-01 4.790169083805e-03 -1.331808982492e+05 -7.366890769984e-01 0.000000000000e+00 
1730951612 3.540898901675e+00 -3.600927805068e-01 -9.587309508275e+01 6.817643153836e+00 -7.735989582407e-01 -1.297658798100e-02 5.595594181762e-01 2.073658852863e+00 6.566564353306e+01 -3.916751750671e-04 -4.736695159131e-04 1.834060373732e-03 -1.557435320610e-01 -1.764039268549e-01 9.957318682215e-01 9.981524566408e-03 1.000709560854e-02 3.962222703208e-01 4.783093927907e-03 -1.331804941587e+05 -6.035597593860e-01 0.000000000000e+00 
1730951612 3.307166071257e+00 -1.943307701860e-01 -9.622831717062e+01 6.943941351694e+00 -8.423000124396e-01 -2.148702857655e-02 5.595593920236e-01 2.073659932250e+00 6.614738428625e+01 -4.002543695136e-04 -4.717241340680e-04 1.813597217332e-03 -1.540959630406e-01 -1.768302746823e-01 9.955212582174e-01 9.979920195973e-03 1.000661592207e-02 3.975550025378e-01 4.776433265176e-03 -1.331808410222e+05 -6.181672491949e-01 0.000000000000e+00 
1730951612 3.293372213464e+00 1.118495967304e-01 -9.618988794352e+01 7.093024282370e+00 -8.083429841613e-01 -3.217975416295e-02 5.595593650739e-01 2.073661067704e+00 6.651488473510e+01 -4.074870368525e-04 -4.699605648001e-04 1.787204700469e-03 -1.527249995687e-01 -1.772509503470e-01 9.953412041243e-01 9.978689729575e-03 1.000622104324e-02 3.985803046334e-01 4.770635859945e-03 -1.331815372877e+05 -6.770243827920e-01 0.000000000000e+00 
1730951612 3.654954901093e+00 2.432202145242e-01 -9.659929386500e+01 7.206336013119e+00 -8.122536344176e-01 -1.194639306477e-03 5.595593401806e-01 2.073662199409e+00 6.706241008308e+01 -4.156651124679e-04 -4.687319636115e-04 1.754551285985e-03 -1.511525309378e-01 -1.776145392607e-01 9.951190053495e-01 9.977420743560e-03 1.000551762313e-02 3.998441501191e-01 4.763991568128e-03 -1.331819559378e+05 -6.958682770507e-01 0.000000000000e+00 
1730951612 3.361228433298e+00 -2.351599080776e-01 -9.679197700287e+01 7.305344759193e+00 -8.541616041712e-01 4.950901530025e-02 5.595592961482e-01 2.073663333297e+00 6.761529971366e+01 -4.240179180707e-04 -4.680943611348e-04 1.728228334109e-03 -1.495049378131e-01 -1.778745649101e-01 9.949167366571e-01 9.975961354036e-03 1.000509506842e-02 4.011321708618e-01 4.757331951039e-03 -1.331825949824e+05 -7.457955003806e-01 0.000000000000e+00 
1730951613 2.598059217745e+00 3.576746887579e-02 -9.731734705376e+01 7.303934528357e+00 -9.086188940952e-01 -5.552184256377e-02 5.595592342342e-01 2.073664457651e+00 6.801543558851e+01 -4.327219931836e-04 -4.678916164314e-04 1.703647553100e-03 -1.477594072431e-01 -1.780699151507e-01 9.947379012016e-01 9.974750061630e-03 1.000503000875e-02 4.024111910835e-01 4.751666589504e-03 -1.331836527055e+05 -8.490507311324e-01 0.000000000000e+00 
1730951613 2.584280673705e+00 2.085514856338e-01 -9.751904475971e+01 7.475568057367e+00 -9.314114701281e-01 -4.584941620414e-02 5.595591669661e-01 2.073665626339e+00 6.840024080622e+01 -4.402461782015e-04 -4.677616449527e-04 1.675580850183e-03 -1.462618670777e-01 -1.782647075285e-01 9.945601106042e-01 9.973695941036e-03 1.000490331789e-02 4.034614461649e-01 4.746373073829e-03 -1.331844639380e+05 -8.952255917317e-01 0.000000000000e+00 
1730951613 2.622020710755e+00 6.934768791714e-01 -9.779640949831e+01 7.564726703936e+00 -1.016617026115e+00 -6.899934347429e-02 5.595590980709e-01 2.073666814469e+00 6.869392747981e+01 -4.477821875579e-04 -4.674946652978e-04 1.646818216109e-03 -1.447647798761e-01 -1.784990807133e-01 9.944147911829e-01 9.972893880508e-03 1.000469015349e-02 4.045699865862e-01 4.741164771192e-03 -1.331859591372e+05 -1.033821382583e+00 0.000000000000e+00 
1730951613 2.275677021072e+00 1.889626881854e+00 -9.776546522360e+01 7.856999304313e+00 -1.065795197693e+00 -2.309027756108e-02 5.595590234851e-01 2.073668008683e+00 6.909294548271e+01 -4.558849512022e-04 -4.672876357105e-04 1.617467394855e-03 -1.431475313666e-01 -1.787515414416e-01 9.942533654100e-01 9.972321213519e-03 1.000459026940e-02 4.058391241855e-01 4.735185842812e-03 -1.331868075003e+05 -1.056361435837e+00 0.000000000000e+00 
1730951613 1.729380019655e+00 1.091662014593e+00 -9.739824485745e+01 8.220399524024e+00 -1.041761133636e+00 -1.394884843353e-01 5.595589594691e-01 2.073669278411e+00 6.947429619873e+01 -4.634601868606e-04 -4.671456475971e-04 1.581604601744e-03 -1.416528786834e-01 -1.790132669248e-01 9.940898201931e-01 9.971411825716e-03 1.000477176449e-02 4.068165729303e-01 4.730194175582e-03 -1.331875430776e+05 -1.057055117717e+00 0.000000000000e+00 
1730951614 1.419497575697e+00 9.549817119224e-01 -9.721499875246e+01 8.337257346053e+00 -9.879126724901e-01 -8.330998357400e-02 5.595588870030e-01 2.073670592248e+00 6.971885685887e+01 -4.711875112525e-04 -4.675091866950e-04 1.545907366009e-03 -1.401050575387e-01 -1.791954866238e-01 9.939656310017e-01 9.970400311354e-03 1.000479598582e-02 4.079769266625e-01 4.724711487345e-03 -1.331883849108e+05 -1.067157891525e+00 0.000000000000e+00 
1730951614 8.543095032221e-01 8.856539375614e-01 -9.756227600789e+01 8.228751875592e+00 -1.017857753321e+00 -1.247081033007e-01 5.595588482017e-01 2.073671905636e+00 7.004191495378e+01 -4.788403378858e-04 -4.677283945263e-04 1.493194961528e-03 -1.386228957871e-01 -1.794564845007e-01 9.938240011664e-01 9.969385341136e-03 1.000547824329e-02 4.088938425999e-01 4.719423838963e-03 -1.331889337551e+05 -1.039004494790e+00 0.000000000000e+00 
1730951614 5.563647240107e-01 3.474406372233e-01 -9.836747696025e+01 8.423998157924e+00 -1.108741695987e+00 -1.000079044465e-01 5.595587672291e-01 2.073673239029e+00 7.027686942153e+01 -4.855546133078e-04 -4.685041739671e-04 1.450725075492e-03 -1.372890982316e-01 -1.795840357035e-01 9.936974829988e-01 9.968354977822e-03 1.000584257155e-02 4.097811023541e-01 4.714677424653e-03 -1.331895191621e+05 -1.017656645232e+00 0.000000000000e+00 
1730951614 -2.419738258655e-01 5.715751447848e-01 -1.001085294533e+02 8.306018549372e+00 -1.378795833975e+00 -2.684508637108e-01 5.595586609549e-01 2.073674604406e+00 7.039579664808e+01 -4.917622572563e-04 -4.691225921685e-04 1.405649440788e-03 -1.360749627941e-01 -1.797427605578e-01 9.935788588931e-01 9.967401887643e-03 1.000660241541e-02 4.105298695668e-01 4.711328184785e-03 -1.331903826878e+05 -1.041403920137e+00 0.000000000000e+00 
1730951614 -6.671031884627e-03 6.068430733285e-01 -1.004021245066e+02 8.384477204889e+00 -1.422877298156e+00 -2.424625822142e-01 5.595585447025e-01 2.073675958218e+00 7.038042909782e+01 -4.977205482318e-04 -4.698269671005e-04 1.356271434165e-03 -1.349210379363e-01 -1.798938928973e-01 9.934861859232e-01 9.966453744444e-03 1.000709554664e-02 4.112660121911e-01 4.707674265061e-03 -1.331913084807e+05 -1.062173854152e+00 0.000000000000e+00 
1730951615 -1.787205530593e-01 1.346068167658e+00 -1.010371212311e+02 7.984024552214e+00 -1.439248035345e+00 -2.318600042309e-01 5.595584127927e-01 2.073677322203e+00 7.036679256903e+01 -5.033216727954e-04 -4.705668251019e-04 1.308689370884e-03 -1.338376653269e-01 -1.800343346922e-01 9.933959131700e-01 9.966037089810e-03 1.000751620475e-02 4.120224283915e-01 4.704017478298e-03 -1.331926649936e+05 -1.151129652678e+00 0.000000000000e+00 
